stop_id,stop_name,stop_desc,stop_lat,stop_lon,zone_id,stop_url
GEREZANI-479,GEREZANI-479,Gerezani,Major stop,-6.82479,39.273585,0,,
DARAJANI-667,DARAJANI-667,Darajani,Small stop,-6.830201667,39.272236667,0,,
KONA-905,KONA-905,Kona,Small stop,-6.842905,39.273301667,0,,
MADUKAMAWILI-506,MADUKAMAWILI-506,Maduka mawili,Small stop,-6.84506,39.267915,0,,
SERENGETI-189,SERENGETI-189,Serengeti,Regular stop,-6.85189,39.266796667,0,,
USALAMA-388,USALAMA-388,Usalama,Regular stop,-6.85388,39.264036667,0,,
GAREJI-667,GAREJI-667,Gareji,Small stop,-6.857146667,39.262393333,0,,
MWEMBEYANGA-565,MWEMBEYANGA-565,Mwembe yanga,Small stop,-6.858565,39.258345,0,,
MAGOROFANI-333,MAGOROFANI-333,Magorofani,Regular stop,-6.863828333,39.256753333,0,,
VITANDA-667,VITANDA-667,Vitanda,Small stop,-6.869161667,39.255876667,0,,
DEVISKONA-667,DEVISKONA-667,Devis kona,Regular stop,-6.870276667,39.25482,0,,
CHAMA-652,CHAMA-652,Chama,Regular stop,-6.87652,39.250371667,0,,
NJIAPANDAYAMWINYI-667,NJIAPANDAYAMWINYI-667,Njia panda ya mwinyi,Regular stop,-6.878626667,39.248751667,0,,
ABIOLA-,ABIOLA-,Abiola,Regular stop,,,0,,
KWAMAMAKIBONGE-333,KWAMAMAKIBONGE-333,Kwa mama kibonge,Regular stop,-6.889518333,39.241805,0,,
KWALULENGE-667,KWALULENGE-667,Kwa lulenge,Regular stop,-6.892241667,39.236088333,0,,
KANISANI-241,KANISANI-241,Kanisani,"Regular stop,-6.89241,39.227225,0,,
5-ned,5-ned,5,,undefined,,0,,
KAWE-844,KAWE-844,Kawe,Regular stop,-6.739844,39.230523,0,,
MARINGO-204,MARINGO-204,Maringo,Regular stop,-6.741204,39.235561,0,,
JKT-541,JKT-541,JKT,Regular stop,-6.74541,39.239072,0,,
NJIAPANDACLOUDS-937,NJIAPANDACLOUDS-937,Njia panda clouds,Regular stop,-6.749937,39.241578,0,,
MIKOCHENIB-819,MIKOCHENIB-819,Mikocheni B,Regular stop,-6.752819,39.243797,0,,
WARIOBA-746,WARIOBA-746,Warioba,Regular stop,-6.755746,39.246876,0,,
KWAMWALIMU-491,KWAMWALIMU-491,Kwa mwalimu,Regular stop,-6.760491,39.252336,0,,
CHAMA-198,CHAMA-198,Chama,Regular stop,-6.766198,39.260154,0,,
KISIWANI-929,KISIWANI-929,Kisiwani,Regular stop,-6.76929,39.26328,0,,
UBALOZI-293,UBALOZI-293,Ubalozi,Regular stop,-6.772293,39.2641,0,,
MOROCCO-395,MOROCCO-395,Morocco,Regular stop,-6.778395,39.263988,0,,
KINONDONIBIAFRA-209,KINONDONIBIAFRA-209,Kinondoni Biafra,Regular stop,-6.782209,39.263814,0,,
MANYANYA-955,MANYANYA-955,Manyanya,Regular stop,-6.788955,39.263581,0,,
KINONDONISTUDIO-627,KINONDONISTUDIO-627,Kinondoni studio,Regular stop,-6.792627,39.26434,0,,
MKWAJUNI-797,MKWAJUNI-797,Mkwajuni,Regular stop,-6.797,39.263775,0,,
MAGOMENI-867,MAGOMENI-867,Magomeni,Regular stop,-6.804867,39.259385,0,,
MAGOMENIMIKUMI-981,MAGOMENIMIKUMI-981,Magomeni mikumi,Regular stop,-6.80981,39.256306,0,,
NJIAPANDAKIGIGO-006,NJIAPANDAKIGIGO-006,Njia panda kigigo,Regular stop,-6.817006,39.254889,0,,
ILALA-BOMA-684,ILALA-BOMA-684,Ilala-boma,Regular stop,-6.824684,39.262291,0,,
AMANA-944,AMANA-944,Amana,Regular stop,-6.827944,39.258676,0,,
BUNGUNI-539,BUNGUNI-539,Bunguni,Regular stop,-6.828539,39.256504,0,,
-013,-013,,Regular stop,-6.829013,39.254398,0,,
SOKONIBUGURUNI-792,SOKONIBUGURUNI-792,Sokoni Buguruni,Regular stop,-6.835792,39.245874,0,,
BUGURUNISHELI-352,BUGURUNISHELI-352,Buguruni sheli,Regular stop,-6.839352,39.243917,0,,
TAZARA-839,TAZARA-839,Tazara,Regular stop,-6.845839,39.246991,0,,
SOKONI-752,SOKONI-752,Sokoni,Regular stop,-6.847752,39.248591,0,,
VITENARY-833,VITENARY-833,Vitenary,Regular stop,-6.849833,39.252244,0,,
SOKOTA-534,SOKOTA-534,Sokota,Regular stop,-6.848534,39.259137,0,,
POLICECHANGOMBE_USALAMA-425,POLICECHANGOMBE_USALAMA-425,Police changombe_ usalama,Regular stop,-6.855425,39.263893,0,,
MWEMBEYANGA-878,MWEMBEYANGA-878,Mwembe yanga,Regular stop,-6.858878,39.258126,0,,
FOMA-186,FOMA-186,Foma,Regular stop,-6.865186,39.256381,0,,
DEVISKONA-328,DEVISKONA-328,Devis kona,Regular stop,-6.870328,39.254851,0,,
CHAMA-527,CHAMA-527,Chama,Regular stop,-6.876527,39.250396,0,,
NJIAPANDAKWAMWINYI-152,NJIAPANDAKWAMWINYI-152,Njiapanda kwa mwinyi,Regular stop,-6.880152,39.246366,0,,
HABIOLA-631,HABIOLA-631,Habiola,Regular stop,-6.884631,39.243199,0,,
KWAMAMAKIBONGE-378,KWAMAMAKIBONGE-378,Kwa mama kibonge,Regular stop,-6.890378,39.241471,0,,
KWALULENGE-234,KWALULENGE-234,Kwa lulenge,Regular stop,-6.89234,39.236147,0,,
HOSPITALI-597,HOSPITALI-597,Hospitali,Regular stop,-6.891597,39.231534,0,,
BUZAKANISANI-445,BUZAKANISANI-445,Buza kanisani,Regular stop,-6.892445,39.227161,0,,
BUZA-373,BUZA-373,Buza,Regular stop,-6.892373,39.226562,0,,
HOSPITALI-684,HOSPITALI-684,Hospitali,Regular stop,-6.891684,39.230675,0,,
KWALULENGE-874,KWALULENGE-874,Kwa lulenge,Regular stop,-6.891874,39.234655,0,,
KWAMAMAKIBONGR-469,KWAMAMAKIBONGR-469,Kwa mama kibongr,Regular stop,-6.890469,39.241246,0,,
ABIOLA-053,ABIOLA-053,Abiola,Regular stop,-6.884053,39.243098,0,,
NJIAPANDAKWAMWINYI-315,NJIAPANDAKWAMWINYI-315,Njia panda kwa mwinyi,Regular stop,-6.882315,39.243951,0,,
CHAMA-502,CHAMA-502,Chama,Regular stop,-6.877502,39.24981,0,,
DAVISKONA-253,DAVISKONA-253,Davis kona,Regular stop,-6.870253,39.255155,0,,
MWEMBEYANGA-053,MWEMBEYANGA-053,Mwembe yanga,Regular stop,-6.859053,39.257777,0,,
SOKOTA-059,SOKOTA-059,Sokota,Regular stop,-6.849059,39.25962,0,,
-363,-363,,Regular stop,-6.845363,39.246514,0,,
TAZARA-185,TAZARA-185,Tazara,Regular stop,-6.842185,39.245102,0,,
ROZANA-388,ROZANA-388,Rozana,Regular stop,-6.833388,39.247293,0,,
MARAPA-728,MARAPA-728,Marapa,Regular stop,-6.829728,39.251272,0,,
BUNGONI-491,BUNGONI-491,Bungoni,Regular stop,-6.828491,39.256244,0,,
AMANA-885,AMANA-885,Amana,Regular stop,-6.827885,39.258645,0,,
ILALA-645,ILALA-645,Ilala,Regular stop,-6.826645,39.263491,0,,
ILALABOMA-869,ILALABOMA-869,Ilala Boma,Regular stop,-6.825869,39.264891,0,,
MSIMBAZI-568,MSIMBAZI-568,Msimbazi,Regular stop,-6.822568,39.25859,0,,
NJIAPANDAKIGOGO-083,NJIAPANDAKIGOGO-083,Njia panda kigogo,Regular stop,-6.816083,39.25424,0,,
MIKUMI-597,MIKUMI-597,Mikumi,Regular stop,-6.809597,39.256138,0,,
MAGOMENIKANISANI-845,MAGOMENIKANISANI-845,Magomeni kanisani,Regular stop,-6.804845,39.259024,0,,
MKWAJUNI-776,MKWAJUNI-776,Mkwajuni,Regular stop,-6.796776,39.263658,0,,
STUDIO-099,STUDIO-099,Studio,Regular stop,-6.793099,39.264245,0,,
VIJANA-864,VIJANA-864,Vijana,Regular stop,-6.792864,39.261204,0,,
-718,-718,,Regular stop,-6.790718,39.255671,0,,
MWANANYAMALAHOSPITALI-138,MWANANYAMALAHOSPITALI-138,Mwananyamala hospitali,Regular stop,-6.787138,39.252848,0,,
MMBUSHO-533,MMBUSHO-533,M/mbusho,Regular stop,-6.778533,39.247046,0,,
BUZAKANISANI-667,BUZAKANISANI-667,Buza kanisani,Major stop,-6.892641667,39.22809,0,,
MAMAKIBONGE-667,MAMAKIBONGE-667,Mama kibonge,Regular stop,-6.890506667,39.241311667,0,,
ABIOLA-333,ABIOLA-333,Abiola,Regular stop,-6.884093333,39.243098333,0,,
NJIAPANDA-,NJIAPANDA-,Njiapanda,Regular stop,,,0,,
CHAMA-333,CHAMA-333,Chama,Regular stop,-6.877183333,39.249996667,0,,
SHULE-245,SHULE-245,Shule,Regular stop,-6.875245,39.251245,0,,
DEVISKONA1-333,DEVISKONA1-333,Devis kona1,Regular stop,-6.870893333,39.25415,0,,
DAVISKONA2-333,DAVISKONA2-333,Davis kona 2,Regular stop,-6.869268333,39.255843333,0,,
FOMA-495,FOMA-495,Foma,Regular stop,-6.865495,39.256186667,0,,
MAGOROFANI-667,MAGOROFANI-667,Magorofani,Regular stop,-6.863356667,39.25693,0,,
MWEMBEYANGA-921,MWEMBEYANGA-921,Mwembe yanga,Regular stop,-6.85921,39.257646667,0,,
USALAMA-667,USALAMA-667,Usalama,Regular stop,-6.855256667,39.263793333,0,,
KANISANI-667,KANISANI-667,Kanisani,Regular stop,-6.853766667,39.264475,0,,
SERENGETI-667,SERENGETI-667,Serengeti,Regular stop,-6.853186667,39.26555555555556,0,,
MADUKANI-005,MADUKANI-005,Madukani,Regular stop,-6.845005,39.267843333,0,,
TAMEKO-915,TAMEKO-915,Tameko,Regular stop,-6.842915,39.272818333,0,,
KEKO-375,KEKO-375,Keko,Regular  stop. Diversion due construction on nyerere road ,-6.840375,39.272976667,0,,
DARAJANI-667,DARAJANI-667,Darajani,Regular stop,-6.830121667,39.272731667,0,,
GOLDSTAR-667,GOLDSTAR-667,Goldstar,Regular stop,-6.826836667,39.27721,0,,
MMMOJA-145,MMMOJA-145,M/Mmoja,Major stop,-6.822145,39.281211667,0,,
BUZAKANISANI-667,BUZAKANISANI-667,Buza kanisani,Start of the route,-6.892246667,39.226186667,0,,
KWALULENGE-667,KWALULENGE-667,Kwa lulenge,Regular stop,-6.892221667,39.234716667,0,,
NJIAPANDAYAMWINYI-667,NJIAPANDAYAMWINYI-667,Njia panda ya mwinyi,Small stop,-6.880661667,39.245623333,0,,
SHULE-591,SHULE-591,Shule,Regular stop,-6.87591,39.250706667,0,,
DEVISKONA1-295,DEVISKONA1-295,Devis kona 1,Regular stop,-6.870295,39.254978333,0,,
TANDIKA-927,TANDIKA-927,Tandika,Regular stop,-6.86927,39.258788333,0,,
SUDAN-667,SUDAN-667,Sudan,Regular stop,-6.863771667,39.264105,0,,
PILE-599,PILE-599,Pile,Regular stop,-6.86599,39.269841667,0,,
KWAAZIZIALI-667,KWAAZIZIALI-667,Kwa azizi ali,Regular stop,-6.867926667,39.27466,0,,
MTONGANI-667,MTONGANI-667,Mtongani,Regular stop,-6.875016667,39.271668333,0,,
MSIKITINI-667,MSIKITINI-667,Msikitini,Small stop,-6.884771667,39.26861,0,,
MISHENI-333,MISHENI-333,Misheni,Regular stop,-6.887243333,39.269211667,0,,
KWAMPILI-951,KWAMPILI-951,Kwa mpili,Regular stop,-6.8951,39.26772,0,,
KIZUIANI-667,KIZUIANI-667,Kizuiani,Regular stop,-6.904331667,39.269575,0,,
ZAKHEM-805,ZAKHEM-805,Zakhem,Regular stop,-6.912805,39.270331667,0,,
RANGITATU-656,RANGITATU-656,Rangi tatu,Regular stop,-6.91656,39.270575,0,,
GEREJI-667,GEREJI-667,Gereji,Regular stop,-6.925381667,39.268075,0,,
MAGENGEYACHARAMBE-755,MAGENGEYACHARAMBE-755,Magenge ya charambe,Regular stop,-6.926755,39.266713333,0,,
FOMA-667,FOMA-667,Foma,Regular stop,-6.928856667,39.26266,0,,
KWAMBIKU-333,KWAMBIKU-333,Kwa Mbiku,Regular stop,-6.930623333,39.259261667,0,,
GEREJIYAPILI-985,GEREJIYAPILI-985,Gereji ya pili,Regular stop,-6.931985,39.256358333,0,,
MALIASILI-815,MALIASILI-815,Maliasili,Regular stop,-6.933815,39.250525,0,,
MAJIMATITU-355,MAJIMATITU-355,Majimatitu,Regular stop,-6.934355,39.248393333,0,,
NYUMBANYEUPE-,NYUMBANYEUPE-,Nyumba nyeupe,Regular stop,,,0,,
MZAMBARAUNI-,MZAMBARAUNI-,Mzambarauni,Regular stop,,,0,,
KANISANI-,KANISANI-,Kanisani,Regular stop,,,0,,
KWAMKONGO-,KWAMKONGO-,Kwa mkongo,Regular stop,,,0,,
CHAMAZI-333,CHAMAZI-333,Chamazi,Regular stop,-6.947793333,39.229476667,0,,
SHULE-995,SHULE-995,Shule,Regular stop,-6.951995,39.226925,0,,
MFENESINI-667,MFENESINI-667,Mfenesini,Regular stop,-6.954701667,39.225468333,0,,
MIKUMI-055,MIKUMI-055,Mikumi,Regular stop,-6.961055,39.225311667,0,,
BAMIA-683,BAMIA-683,Bamia,Regular stop,-6.9683,39.225351667,0,,
MKONZA-667,MKONZA-667,Mkonza,Regular stop,-6.971061667,39.219781667,0,,
SONGAS-667,SONGAS-667,Songas,Regular stop,-6.972571667,39.217451667,0,,
MBANDEMWISHO-333,MBANDEMWISHO-333,Mbande mwisho,Regular stop,-6.978703333,39.214655,0,,
GONGOLAMBOTO-385,GONGOLAMBOTO-385,Gongo la mboto,Major stop,-6.881385,39.158325,0,,
MZAMBARAUNI-055,MZAMBARAUNI-055,Mzambarauni,Regular stop,-6.879055,39.164881667,0,,
MOMBASA-667,MOMBASA-667,Mombasa,Regular stop,-6.876336667,39.17136,0,,
MADAFU-005,MADAFU-005,Madafu,Regular stop,-6.875005,39.175185,0,,
MAGEREZA-333,MAGEREZA-333,Magereza,Regular stop,-6.874433333,39.178971667,0,,
BANANA-128,BANANA-128,Banana,Major stop,-6.87128,39.18922,0,,
POSTA-667,POSTA-667,Posta,Small stop,-6.866121667,39.199868333,0,,
AIRPORT-333,AIRPORT-333,Airport,Regular stop,-6.864558333,39.203293333,0,,
KIPAWA-995,KIPAWA-995,Kipawa,Regular stop,-6.858995,39.21482,0,,
KWAKUDE-667,KWAKUDE-667,Kwa kude,Small stop,-6.859946667,39.220638333,0,,
MAGENGE-333,MAGENGE-333,Magenge,Regular stop,-6.866493333,39.221166667,0,,
RELINI-063,RELINI-063,Relini,Regular stop,-6.87063,39.22319,0,,
RUMO-333,RUMO-333,Rumo,Regular stop,-6.873723333,39.223723333,0,,
MWISHOWALAMI-667,MWISHOWALAMI-667,Mwisho wa lami,Regular stop,-6.878636667,39.226926667,0,,
KWAJIMI-,KWAJIMI-,Kwa jimi,Small stop,,,0,,
TANESCO-667,TANESCO-667,Tanesco,Regular stop,-6.890086667,39.220408333,0,,
KANISANI-667,KANISANI-667,Kanisani,Major stop,-6.892376667,39.225738333,0,,
KWALULENGE-835,KWALULENGE-835,Kwa lulenge,Regular stop,-6.891835,39.23449,0,,
KWAMAMAKIBONGE-667,KWAMAMAKIBONGE-667,Kwa mama kibonge,Regular stop,-6.890521667,39.24127,0,,
ABIOLA-333,ABIOLA-333,Abiola,Regular stop,-6.883768333,39.24315,0,,
NJIAPANDAYAMWINYI-385,NJIAPANDAYAMWINYI-385,Njiapanda ya mwinyi,Small stop,-6.882385,39.243898333,0,,
MAMAKIBONGE-495,MAMAKIBONGE-495,Mama kibonge,Small stop,-6.877495,39.249811667,0,,
DAVISCORNER-667,DAVISCORNER-667,Davis corner,Davis stop,-6.870246667,39.255303333,0,,
TANDIKA-667,TANDIKA-667,Tandika,Major stop,-6.869351667,39.258873333,0,,
MMMOJA-065,MMMOJA-065,M/mmoja,Regular stop,-6.818065,39.280621667,0,,
KARIAKOO-405,KARIAKOO-405,Kariakoo,Regular stop,-6.822405,39.276998333,0,,
CHINAPLAZA-333,CHINAPLAZA-333,China plaza,Regular stop,-6.824258333,39.271101667,0,,
KARUME-581,KARUME-581,Karume,Regular stop,-6.82581,39.266761667,0,,
ILALASOKONI-333,ILALASOKONI-333,Ilala sokoni,Regular stop,-6.826548333,39.264668333,0,,
AMANA-333,AMANA-333,Amana,Regular stop,-6.827983333,39.258838333,0,,
MALAPA-667,MALAPA-667,Malapa,Regular stop,-6.829736667,39.251731667,0,,
ROZANA-625,ROZANA-625,Rozana,Regular stop,-6.835625,39.245986667,0,,
BUGURUNI-333,BUGURUNI-333,Buguruni,Regular stop,-6.837278333,39.24457,0,,
SHULE-028,SHULE-028,Shule,Regular stop,-6.83028,39.22855,0,,
POSTA-667,POSTA-667,Posta,Regular stop,-6.837616667,39.214303333,0,,
CHAMA-333,CHAMA-333,Chama,Regular stop,-6.844898333,39.19685,0,,
KWAPENGO-035,KWAPENGO-035,Kwa pengo,Regular stop,-6.835035,39.1836,0,,
CHAMA-667,CHAMA-667,Chama,Regular stop,-6.833746667,39.180481667,0,,
UWANJANI-333,UWANJANI-333,Uwanjani,Regular stop,-6.833128333,39.177121667,0,,
BUCHA-667,BUCHA-667,Bucha,Regular stop,-6.833041667,39.171085,0,,
BONYPKWA-333,BONYPKWA-333,Bonypkwa,End of route. Not a regular stop,-6.827448333,39.166748333,0,,
MUHIMBILI-572,MUHIMBILI-572,Muhimbili,Start of route. A large station with buses from different routes.,-6.80572,39.27341,0,,
KONA-797,KONA-797,Kona,Regular stop,-6.80797,39.27569,0,,
KARIAKOO-667,KARIAKOO-667,Kariakoo,Regular stop,-6.814406667,39.273535,0,,
TANDAMTI-667,TANDAMTI-667,Tandamti,Regular stop,-6.821141667,39.271831667,0,,
KARUME-333,KARUME-333,Karume,Regular stop,-6.825823333,39.266886667,0,,
ILALASOKONI-455,ILALASOKONI-455,Ilala sokoni,Regular stop,-6.826455,39.264611667,0,,
AMANA-667,AMANA-667,Amana,Regular stop,-6.827746667,39.2596,0,,
MALAPA-667,MALAPA-667,Malapa,Regular stop,-6.829736667,39.251571667,0,,
ROZANA-667,ROZANA-667,Rozana,Regular stop,-6.835461667,39.246018333,0,,
BUGURUNI-768,BUGURUNI-768,Buguruni,Regular stop,-6.83768,39.24273,0,,
MATUMBI-776,MATUMBI-776,Matumbi,Regular stop,-6.82776,39.234713333,0,,
KONA-333,KONA-333,Kona,Regular stop,-6.825718333,39.231215,0,,
SHULE-667,SHULE-667,Shule,Regular stop,-6.830116667,39.227441667,0,,
BIMA-333,BIMA-333,Bima,Regular stop,-6.831363333,39.220401667,0,,
POSTA-667,POSTA-667,Posta,Regular stop,-6.837796667,39.214313333,0,,
BARAKUDA-333,BARAKUDA-333,Barakuda,Regular stop,-6.842218333,39.209693333,0,,
CHAMA-667,CHAMA-667,Chama,Regular stop,-6.844776667,39.197443333,0,,
SHELI-333,SHELI-333,Sheli,Regular stop,-6.846328333,39.187235,0,,
SEGEREA-715,SEGEREA-715,Segerea,Regular stop,-6.843715,39.186131667,0,,
KBONYOKWA-796,KBONYOKWA-796,K/Bonyokwa,"End of route. Regular stop,-6.82796,39.166805,0,,
MCOMPLEX-913,MCOMPLEX-913,M/complex,Large stop,-6.82728913,39.26862256,0,,
KARUME-856,KARUME-856,Karume,Small bus stop,-6.82565856,39.26687813,0,,
ILALASOKONI-023,ILALASOKONI-023,Ilala sokoni,Small bus stop,-6.82634023,39.26483831,0,,
AMANA-418,AMANA-418,Amana,Small bus stop,-6.82785418,39.25875927,0,,
MALAPA-753,MALAPA-753,Malapa,Small bus stop,-6.82967753,39.25198756,0,,
BUGURUNISOKONI-124,BUGURUNISOKONI-124,Buguruni sokoni,Large bus stop,-6.83536124,39.24621862,0,,
BUGURUNICCM-148,BUGURUNICCM-148,Buguruni ccm,Small bus stop,-6.83938148,39.24388928,0,,
VINGUNGUTI-461,VINGUNGUTI-461,Vingunguti,Small bus stop,-6.8524461,39.22917678,0,,
JET-597,JET-597,Jet,Small bus stop,-6.85602597,39.22196328,0,,
KIPAWA-055,KIPAWA-055,Kipawa,Small bus stop,-6.8599055,39.21286077,0,,
POST-429,POST-429,Post,Small bus stop,-6.86529429,39.20241643,0,,
NJIAPANDASEGEREA-356,NJIAPANDASEGEREA-356,Njia panda segerea,Small bus stop,-6.86651356,39.19911612,0,,
BANANA-393,BANANA-393,Banana,Large bus stop,-6.87107393,39.18997042,0,,
HALIYAHEWA-782,HALIYAHEWA-782,Hali ya hewa,Small bus stop,-6.87655782,39.18885897,0,,
MWISHOWARAMI-227,MWISHOWARAMI-227,Mwisho wa rami,Small bus stop,-6.88516227,39.1922946,0,,
MATEMBELE1-432,MATEMBELE1-432,Matembele 1,Small bus stop,-6.88993432,39.18915007,0,,
RELINI-938,RELINI-938,Relini,Small bus stop,-6.89179938,39.19122774,0,,
KITULANI-276,KITULANI-276,Kitulani,Small bus stop,-6.89348276,39.19300568,0,,
MNADANI-251,MNADANI-251,Mnadani,Small bus stop,-6.89618251,39.1947594,0,,
KITUNDASHULE-629,KITUNDASHULE-629,Kitunda shule,Small bus stop,-6.90115629,39.19672948,0,,
KAWE-675,KAWE-675,Kawe,Regular stop,-6.739675,39.230076667,0,,
KANISANI-333,KANISANI-333,Kanisani,Regular stop,-6.737343333,39.226696667,0,,
UKWAMANI-333,UKWAMANI-333,Ukwamani,Regular stop,-6.735983333,39.222226667,0,,
MAASAI-667,MAASAI-667,Maasai,Regular stop,-6.736141667,39.221718333,0,,
SUPA-667,SUPA-667,Supa,Regular stop,-6.749161667,39.220856667,0,,
MAKONGO-667,MAKONGO-667,Makongo,Regular stop,-6.756851667,39.224621667,0,,
MWENGE-333,MWENGE-333,Mwenge,Regular stop,-6.762683333,39.227788333,0,,
MPAKANI-667,MPAKANI-667,Mpakani,Regular stop,-6.767901667,39.226428333,0,,
LUFUNGIRA-333,LUFUNGIRA-333,Lufungira,Regular stop,-6.770743333,39.223696667,0,,
SHELI-667,SHELI-667,Sheli,Regular stop,-6.773476667,39.22147,0,,
MLIMANI-333,MLIMANI-333,Mlimani,Regular stop,-6.773478333,39.221473333,0,,
KIVULINI-667,KIVULINI-667,Kivulini,Regular stop,-6.776811667,39.219026667,0,,
MAGUFULIHOSTEL-667,MAGUFULIHOSTEL-667,Magufuli hostel,Regular stop,-6.782986667,39.214531667,0,,
NJIAPANDAYACHUO-905,NJIAPANDAYACHUO-905,Njia panda ya chuo,Regular stop,-6.787905,39.209456667,0,,
RIVERSIDE-333,RIVERSIDE-333,Riverside,Regular stop,-6.798328333,39.206668333,0,,
HOSTEL-333,HOSTEL-333,Hostel,Regular stop,-6.803943333,39.210428333,0,,
EXTERNAL-806,EXTERNAL-806,External,Regular stop,-6.806,39.213693333,0,,
GARAGE-333,GARAGE-333,Garage,Regular stop,-6.811573333,39.216653333,0,,
MWANANCHI-333,MWANANCHI-333,Mwananchi,Regular stop,-6.816418333,39.22206,0,,
TOT-667,TOT-667,TOT,Regular stop,-6.820316667,39.227555,0,,
KONA-333,KONA-333,Kona,Regular stop,-6.825483333,39.231066667,0,,
AROMA-848,AROMA-848,Aroma,Regular stop,-6.82848,39.231785,0,,
SHULE-667,SHULE-667,Shule,Regular stop,-6.830206667,39.228056667,0,,
POSTA-667,POSTA-667,Posta,Regular stop,-6.837676667,39.214373333,0,,
KITUOKIPYA-994,KITUOKIPYA-994,Kituo kipya,Regular stop,-6.83994,39.21291,0,,
BARAKUDA-275,BARAKUDA-275,Barakuda,Regular stop,-6.842275,39.209781667,0,,
SHELI-905,SHELI-905,Sheli,Regular stop,-6.843905,39.201541667,0,,
CHAMA-667,CHAMA-667,Chama,Regular stop,-6.845086667,39.196311667,0,,
SHELI-333,SHELI-333,Sheli,Regular stop,-6.846228333,39.18757,0,,
TSEGEREA-365,TSEGEREA-365,T/Segerea,Large station with various activities like small business.,-6.846365,39.186993333,0,,
KGSOKONI-226,KGSOKONI-226,Kg/sokoni,Small bus stop,-6.91123226,39.12118297,0,,
NJIAPANDA-173,NJIAPANDA-173,Njia panda,Small bus stop,-6.90183173,39.11879349,0,,
PUGUSEC-226,PUGUSEC-226,Pugu sec,Small bus stop,-6.89682226,39.12975102,0,,
KAMPALA-798,KAMPALA-798,Kampala,Small bus stop,-6.88402798,39.15242139,0,,
GONGOLAMBOTO-549,GONGOLAMBOTO-549,Gongolamboto,Large bus stop,-6.88215549,39.15636711,0,,
KITUOKIPYA-886,KITUOKIPYA-886,Kituo kipya,Small bus stop,-6.88000886,39.16067845,0,,
MOMBASA-318,MOMBASA-318,Mombasa,Large bus stop,-6.87635318,39.17146509,0,,
MAGEREZA-737,MAGEREZA-737,Magereza,Small bus station,-6.87493737,39.17540417,0,,
BANANA-303,BANANA-303,Banana,Large bus stop,-6.87136303,39.18923133,0,,
AIRPORT-033,AIRPORT-033,Airport,Small bus station,-6.86322033,39.20518834,0,,
VINGUNGUTI-034,VINGUNGUTI-034,Vingunguti,Small bus stop,-6.85265034,39.2281742,0,,
BAKHRESA-652,BAKHRESA-652,Bakhresa,Small bus stop,-6.84197652,39.24509938,0,,
BUGURUNI-227,BUGURUNI-227,Buguruni,Large bus stop,-6.83750227,39.2425618,0,,
MWANANCHI-403,MWANANCHI-403,Mwananchi,Small bus station,-6.8158403,39.22112059,0,,
GARAGE-474,GARAGE-474,Garage,Small bus stop,-6.81152474,39.21647131,0,,
EXTERNAL-275,EXTERNAL-275,External,Small bus stop,-6.8056275,39.21301836,0,,
RIVERSSIDE-986,RIVERSSIDE-986,Riversside,Small bus station,-6.79923986,39.206411,0,,
MLIMANICITY-794,MLIMANICITY-794,Mlimani  city,Small bus stop,-6.77383794,39.22091516,0,,
IFUNGILA-809,IFUNGILA-809,Ifungila,Small bus stop,-6.77006809,39.22389252,0,,
MPAKANI-243,MPAKANI-243,Mpakani,Small bus stop,-6.76779243,39.22627035,0,,
ITV-496,ITV-496,Itv,Small bus station,-6.76557496,39.23102938,0,,
BAMAGA-172,BAMAGA-172,Bamaga,Regular stop,-6.76797172,39.23411403,0,,
SCIENCE-348,SCIENCE-348,Science,Small bus stop,-6.77281348,39.24044237,0,,
MAKUMBUSHO-318,MAKUMBUSHO-318,Makumbusho,Large bus stop,-6.7783318,39.24741703,0,,
MNAZIMMOJA-333,MNAZIMMOJA-333,Mnazi mmoja,Regular stop,-6.818318333,39.28021,0,,
BAHKRESA-667,BAHKRESA-667,Bahkresa,Regular stop,-6.821496667,39.278921667,0,,
KARIAKOO-333,KARIAKOO-333,Kariakoo,Regular stop,-6.822258333,39.27715,0,,
CONGO-333,CONGO-333,Congo,Regular stop,-6.823298333,39.27473,0,,
CHINAPLAZA-667,CHINAPLAZA-667,China plaza,Regular stop,-6.823851667,39.273265,0,,
KARUME-365,KARUME-365,Karume,Regular stop,-6.825365,39.267631667,0,,
ILALASOKONI-667,ILALASOKONI-667,Ilala sokoni,Regular stop,-6.826356667,39.26471,0,,
MALAPA-333,MALAPA-333,Malapa,Regular stop,-6.829453333,39.252673333,0,,
ROZANA-557,ROZANA-557,Rozana,Regular stop,-6.83557,39.24602,0,,
BUGURUNI-667,BUGURUNI-667,Buguruni,Regular stop,-6.838041667,39.242936667,0,,
SHELI-865,SHELI-865,Sheli,Regular stop,-6.824865,39.231336667,0,,
SHULE-667,SHULE-667,Shule,Regular stop,-6.830086667,39.227335,0,,
BIMA-665,BIMA-665,Bima,Regular stop,-6.829665,39.22396,0,,
POSTA-515,POSTA-515,Posta,Regular stop,-6.837515,39.214365,0,,
CHAMA-497,CHAMA-497,Chama,Regular stop,-6.84497,39.196666667,0,,
SHELI-632,SHELI-632,Sheli,Regular stop,-6.84632,39.187125,0,,
SEGEREA-333,SEGEREA-333,Segerea,Regular stop,-6.843768333,39.186418333,0,,
MAGEREZA-333,MAGEREZA-333,Magereza,Regular stop,-6.842073333,39.180063333,0,,
MTATAA-355,MTATAA-355,Mtataa,Regular stop,-6.84355,39.169841667,0,,
GARAGE-667,GARAGE-667,Garage,Regular stop,-6.845131667,39.164893333,0,,
MSIKITINI-667,MSIKITINI-667,Msikitini,Regular stop,-6.845061667,39.164395,0,,
KINYEREZI-333,KINYEREZI-333,Kinyerezi,End of route. A large station,-6.840748333,39.148003333,0,,
KINYEREZI-017,KINYEREZI-017,Kinyerezi,Large bus stand,-6.841514017,39.147773746,0,,
SHULE-336,SHULE-336,Shule,Regular stop,-6.843467336,39.1568327,0,,
SALONI-396,SALONI-396,Saloni,Small stop,-6.844098396,39.168358125,0,,
MBUYUNI-644,MBUYUNI-644,Mbuyuni,Regular stop,-6.84307644,39.172514847,0,,
SEGEREA-519,SEGEREA-519,Segerea,Large stand bus,-6.843761519,39.186352019,0,,
SANENE-424,SANENE-424,Sanene,Small stop,-6.84388424,39.200984045,0,,
DARAJANI-583,DARAJANI-583,Darajani,Small stop,-6.844059583,39.206637582,0,,
BARACUDA-906,BARACUDA-906,Baracuda,Major stop,-6.841417906,39.210992637,0,,
POSTA-313,POSTA-313,Posta,Small stop,-6.839261313,39.213738761,0,,
MAGENGENI-364,MAGENGENI-364,Magengeni,Small stop,-6.836943364,39.214555355,0,,
DUKANI-891,DUKANI-891,Dukani,Small stop,-6.828597891,39.218500262,0,,
SHIBA-061,SHIBA-061,Shiba,Small stop,-6.826511061,39.213878444,0,,
SAVANA-409,SAVANA-409,Savana,Small stop,-6.82688409,39.212764137,0,,
MAWENZI-409,MAWENZI-409,Mawenzi,Small stop,-6.82688409,39.212764137,0,,
NJIAPANDA-617,NJIAPANDA-617,Njia Panda,Small stop,-6.825847617,39.208572012,0,,
TKIMANGA-959,TKIMANGA-959,T/Kimanga,Large bus stand,-6.827620959,39.203111119,0,,
KISEMVULE-667,KISEMVULE-667,Kisemvule,Major stop,-7.033556667,39.279001667,0,,
SOWETO-,SOWETO-,Soweto,Regular stop ,,,0,,
HOSPITAL-,HOSPITAL-,Hospital,Regular stop,,,0,,
MAGOGO-333,MAGOGO-333,Magogo,Regular stop,-7.016453333,39.302571667,0,,
VODA-667,VODA-667,Voda,Regular stop,-7.013226667,39.304205,0,,
VIKINDU-333,VIKINDU-333,Vikindu,Major stop,-7.005688333,39.308538333,0,,
STANDYAMKOA-765,STANDYAMKOA-765,Stand ya mkoa,Big bus stand,-6.987765,39.295675,0,,
MWANDEGEYAPILI-333,MWANDEGEYAPILI-333,Mwandege ya pili,Regular stop,-6.977858333,39.289298333,0,,
KONGOWE-667,KONGOWE-667,Kongowe,Regular stop,-6.954931667,39.28308,0,,
MZINGA-405,MZINGA-405,Mzinga,Regular stop,-6.942405,39.278735,0,,
NJIAPANDAYAMPONDA-667,NJIAPANDAYAMPONDA-667,Njia panda ya mponda,Regular stop,-6.935441667,39.272918333,0,,
KOKOTO-333,KOKOTO-333,Kokoto,Regular stop,-6.929298333,39.27175,0,,
KANISANI-333,KANISANI-333,Kanisani,Regular stop,-6.926043333,39.271226667,0,,
RANGITATU-333,RANGITATU-333,Rangi tatu,Major stop,-6.917273333,39.270273333,0,,
ZAKHEIM-463,ZAKHEIM-463,Zakheim,Regular stop,-6.91463,39.270131667,0,,
KIZUIANI-667,KIZUIANI-667,Kizuiani,Regular stop,-6.904691667,39.269435,0,,
KIPATI-007,KIPATI-007,Kipati,Regular stop,-6.90007,39.269028333,0,,
SABASABA-635,SABASABA-635,Sabasaba,Regular stop,-6.896635,39.268016667,0,,
MISHENI-135,MISHENI-135,Misheni,Regular stop,-6.89135,39.267916667,0,,
MSIKITINI-667,MSIKITINI-667,Msikitini,Regular stop,-6.884816667,39.268295,0,,
MTONGANI-635,MTONGANI-635,Mtongani,Regular stop,-6.874635,39.271436667,0,,
AZIZIALI-835,AZIZIALI-835,Azizi Ali,Regular stop,-6.86835,39.275518333,0,,
TEMEKEMWISHO-667,TEMEKEMWISHO-667,Temeke mwisho,Major stop,-6.864781667,39.266311667,0,,
SUDAN-333,SUDAN-333,Sudan,Regular stop,-6.863758333,39.263853333,0,,
MAJARIBIO-465,MAJARIBIO-465,Majaribio,Regular stop,-6.864465,39.26345,0,,
TANDIKA-333,TANDIKA-333,Tandika,Major stop,-6.868693333,39.263365,0,,
MUHIMBILI-333,MUHIMBILI-333,Muhimbili,Major stop,-6.805673333,39.273503333,0,,
KONAYAMUHIMBILI-667,KONAYAMUHIMBILI-667,Kona ya muhimbili,Small stop,-6.807956667,39.275703333,0,,
JANGWANI-211,JANGWANI-211,Jangwani,Small stop,-6.81211,39.273541667,0,,
FIRE-286,FIRE-286,Fire,Small stop,-6.81286,39.27357,0,,
MNAZIMMOJA-214,MNAZIMMOJA-214,Mnazi mmoja,Small stop,-6.8214,39.280028333,0,,
GOLDSTAR-333,GOLDSTAR-333,Goldstar,Small stop,-6.826463333,39.277751667,0,,
KAMATA-667,KAMATA-667,Kamata,Small stop,-6.827796667,39.275851667,0,,
VETA-667,VETA-667,Veta,Small stop,-6.834461667,39.27002,0,,
KEKOFURNITURE-,KEKOFURNITURE-,Keko furniture,Small stop,,,0,,
BORA-,BORA-,Bora,Small stop,,,0,,
MADUKAMAWILI-667,MADUKAMAWILI-667,Maduka mawili,Regular stop,-6.844966667,39.268033333,0,,
SERENGETI-333,SERENGETI-333,Serengeti,Regular stop,-6.851973333,39.266763333,0,,
USALAMA-,USALAMA-,Usalama,Regular stop,,,0,,
TEMEKEHOSPITAL-667,TEMEKEHOSPITAL-667,Temeke Hospital,Regular stop,-6.860456667,39.263358333,0,,
SUDAN-667,SUDAN-667,Sudan,Regular stop,-6.863666667,39.263573333,0,,
TANDIKA-598,TANDIKA-598,Tandika,Major stop,-6.86598,39.262511667,0,,
MUHIMBILI-808,MUHIMBILI-808,Muhimbili,Large bus stop,-6.80614808,39.27384618,0,,
AZANIA-244,AZANIA-244,Azania,Small bus stop,-6.81066244,39.27419227,0,,
MMMOJA-039,MMMOJA-039,M/mmoja,Large bus stop,-6.82164039,39.28020287,0,,
GOLDSTAR-579,GOLDSTAR-579,Gold star,Small bus stop,-6.82603579,39.2786163,0,,
DARAJANI-856,DARAJANI-856,Darajani,Small bus stop,-6.8297856,39.27267301,0,,
PUGU-332,PUGU-332,Pugu,Small bus stop,-6.83195332,39.26870129,0,,
KALAKANA-669,KALAKANA-669,Kalakana,Small bus stop,-6.84841669,39.23649333,0,,
JET-149,JET-149,Jet,Small bus stop,-6.85578149,39.22243535,0,,
AIRPORT-244,AIRPORT-244,Airport,Small bus stop,-6.86430244,39.20412184,0,,
NJIAPANDASEGEREA-394,NJIAPANDASEGEREA-394,Njia panda segerea,Small bus stop,-6.86792394,39.19627264,0,,
BANANA-036,BANANA-036,Banana,Large bus stop,-6.87092036,39.19033253,0,,
MWISHOWARAMI-629,MWISHOWARAMI-629,Mwisho wa rami,Small bus stop,-6.88194629,39.19199616,0,,
RELINI-293,RELINI-293,Relini,Small bus stop,-6.89184293,39.19137113,0,,
KITUNDAMASAI-561,KITUNDAMASAI-561,Kitunda masai,Small bus stop,-6.89668561,39.19510734,0,,
POLICE-475,POLICE-475,Police,Small bus stop,-6.89807475,39.19579149,0,,
KITUNDA-121,KITUNDA-121,Kitunda,Small bus stop,-6.90137121,39.1969154,0,,
BABUCHA-599,BABUCHA-599,Babucha,Small bus stop,-6.91086599,39.19128247,0,,
NYAMWEZ-745,NYAMWEZ-745,Nyamwez,Small bus stop,-6.91275745,39.19018829,0,,
MATEMBELE-929,MATEMBELE-929,Matembele,Small bus stop,-6.91543929,39.18866077,0,,
MWEMBENI-797,MWEMBENI-797,Mwembeni,Small bus stop,-6.92307797,39.18423561,0,,
DARAJANI-671,DARAJANI-671,Darajani,Small bus stop,-6.92830671,39.18636355,0,,
MSIKITINI-239,MSIKITINI-239,Msikitini,Small bus stop,-6.93013239,39.18614347,0,,
KIVULESHULE-107,KIVULESHULE-107,Kivule shule,Small bus stop,-6.93313107,39.1840052,0,,
KIVULESOKONI-252,KIVULESOKONI-252,Kivule sokoni,Large bus stop,-6.93570252,39.18257754,0,,
MCOMPLEX-535,MCOMPLEX-535,M/complex,Major stop,-6.827535,39.268635,0,,
KARUME-555,KARUME-555,Karume,Regular stop,-6.825555,39.267065,0,,
SHELI-333,SHELI-333,Sheli,Regular stop,-6.826348333,39.264768333,0,,
AMANA-667,AMANA-667,Amana,Small stop,-6.827931667,39.258728333,0,,
MALAPA-667,MALAPA-667,Malapa,Small stop,-6.829756667,39.251618333,0,,
BUGURUNISOKONI-667,BUGURUNISOKONI-667,Buguruni sokoni,Regular stop,-6.835686667,39.245995,0,,
BUGURUNICHAMA-667,BUGURUNICHAMA-667,Buguruni chama,Regular stop,-6.839426667,39.243911667,0,,
TAZARA-667,TAZARA-667,Tazara,Regular stop,-6.844651667,39.244866667,0,,
KARAKANA-333,KARAKANA-333,Karakana,Small stop,-6.848348333,39.23659,0,,
VINGUNGUTI-172,VINGUNGUTI-172,Vingunguti,Small stop,-6.85172,39.230411667,0,,
SIDO-,SIDO-,Sido,Small stop,,,0,,
JET-667,JET-667,Jet,Small stop,-6.858501667,39.217878333,0,,
KWAMGUNDI-333,KWAMGUNDI-333,Kwa mgundi,Small stop,-6.860773333,39.221406667,0,,
MAGENGE-635,MAGENGE-635,Magenge,Regular stop,-6.863635,39.220186667,0,,
SHELI-667,SHELI-667,Sheli,Regular stop,-6.865841667,39.221073333,0,,
RELINI-064,RELINI-064,Relini,Regular stop,-6.87064,39.223186667,0,,
MWANZO-333,MWANZO-333,mwanzo,Regular stop,-6.873978333,39.22386,0,,
MWISHOWALAMI-,MWISHOWALAMI-,Mwisho wa lami,Regular stop,,,0,,
KWA-333,KWA-333,Kwa,Regular stop,-6.880108333,39.228195,0,,
MNARANI-,MNARANI-,Mnarani,Regular stop,,,0,,
TANESCO-333,TANESCO-333,Tanesco,Regular stop,-6.889793333,39.219781667,0,,
MCOMPLEX-409,MCOMPLEX-409,M/complex,Large bus stop,-6.82729409,39.26852081,0,,
KARUME-344,KARUME-344,Karume,Small bus stop,-6.82553344,39.2672213,0,,
ILALASOKONI-714,ILALASOKONI-714,I lala sokoni,Small bus stop,-6.82622714,39.26537873,0,,
AMANA-428,AMANA-428,Amana,Small bus stop,-6.82800428,39.25864382,0,,
BUGURUNISOKONI-554,BUGURUNISOKONI-554,Buguruni sokoni,Large bus stop,-6.8352554,39.24621382,0,,
TAZARA-138,TAZARA-138,Tazara,Regular stop,-6.84464138,39.24490252,0,,
VINGUNGUTI-779,VINGUNGUTI-779,Vingunguti,Small bus stop,-6.85243779,39.22905763,0,,
POST-626,POST-626,Post,Small bus stop,-6.86549626,39.20136788,0,,
NJIAPANDASEGEREA-884,NJIAPANDASEGEREA-884,Njia panda segerea,Small bus stop,-6.86683884,39.19852441,0,,
BANANA-065,BANANA-065,Banana,Small bus stop,-6.87145065,39.1891915,0,,
MADAFU-445,MADAFU-445,Madafu,Small bus stop,6.874444444444445,-39.17722222222222,0,,
MOMBASA-387,MOMBASA-387,Mombasa,Large bus stop,-6.87662387,39.17100452,0,,
MDHAMBARAUNI-325,MDHAMBARAUNI-325,Mdhambarauni,Small bus stop,-6.87914325,39.16499506,0,,
KITUOKIPYA-167,KITUOKIPYA-167,Kituo kipya,Small bus stop,-6.8803167,39.16032588,0,,
GMBOTO-717,GMBOTO-717,G/mboto,Large bus stop,-6.88098717,39.15915292,0,,
PUGUSEC-396,PUGUSEC-396,Pugu sec,Small bus stop,-6.89515396,39.13656004,0,,
KONA-055,KONA-055,Kona,Small bus stop,-6.90172055,39.11883297,0,,
KWARAISI-453,KWARAISI-453,Kwa raisi,Small bus stop,-6.9055453,39.11953997,0,,
KWASELEMALA-295,KWASELEMALA-295,Kwa selemala,Small bus stop,-6.91101295,39.12113938,0,,
KGSOKONI-204,KGSOKONI-204,Kg/sokoni,Large bus stop,-6.91227204,39.12154823,0,,
MBURAHATI-328,MBURAHATI-328,Mburahati,Start of route. Not a big station,-6.80328,39.235821667,0,,
KANISANI-333,KANISANI-333,Kanisani,Regular stop,-6.808098333,39.23669,0,,
DARAJANI-333,DARAJANI-333,Darajani,Regular stop,-6.816663333,39.238698333,0,,
LUHANGA-667,LUHANGA-667,Luhanga,Regular stop,-6.818371667,39.2407,0,,
POST-333,POST-333,Post,Regular stop,-6.818023333,39.24352,0,,
SHELI-333,SHELI-333,Sheli,Regular stop,-6.818098333,39.247143333,0,,
NJIAPANDAKIGOGO-667,NJIAPANDAKIGOGO-667,Njia panda kigogo,Regular stop,-6.816856667,39.254755,0,,
MSIMBAZI-685,MSIMBAZI-685,Msimbazi,Regular stop,-6.822685,39.2591,0,,
ILALASOKONI-643,ILALASOKONI-643,Ilala sokoni,Regular stop,-6.82643,39.2647,0,,
NOSTOP-667,NOSTOP-667,No stop,Regular stop,-6.829341667,39.26539,0,,
KONA-667,KONA-667,Kona,Regular stop,-6.831746667,39.260953333,0,,
AMANAHOSPITALI-333,AMANAHOSPITALI-333,Amana hospitali,Regular stop,-6.827768333,39.259605,0,,
KIGALA-117,KIGALA-117,Kigala,Regular stop,-6.8296117,39.2522517,0,,
ZEBRA-685,ZEBRA-685,Zebra,Regular stop,-6.833685,39.247313333,0,,
BUGURUNI-267,BUGURUNI-267,Buguruni,Regular stop,-6.8354267,39.2461167,0,,
NOSTOP-667,NOSTOP-667,No stop,Regular stop,-6.838966667,39.243271667,0,,
MNYAMANI-667,MNYAMANI-667,Mnyamani,Regular stop,-6.838421667,39.242801667,0,,
NOSTOP-667,NOSTOP-667,No stop,Regular stop,-6.839241667,39.240115,0,,
RELI-333,RELI-333,Reli,Regular stop,-6.839243333,39.240105,0,,
KIDARAJA-667,KIDARAJA-667,Kidaraja,Regular stop,-6.840921667,39.237163333,0,,
KWASIMBA-333,KWASIMBA-333,Kwa simba,Regular stop,-6.843278333,39.232563333,0,,
MPERAMPERA-515,MPERAMPERA-515,Mperampera,Regular stop,-6.843515,39.229855,0,,
KANISANI-667,KANISANI-667,Kanisani,Regular stop,-6.845041667,39.225765,0,,
KONA-333,KONA-333,Kona,Regular stop,-6.845313333,39.225391667,0,,
DARAJANI-327,DARAJANI-327,Darajani,Regular stop,-6.84327,39.221123333,0,,
MSIKITINI-667,MSIKITINI-667,Msikitini,Regular stop,-6.843881667,39.218163333,0,,
TRANSFOMER-425,TRANSFOMER-425,Transfomer,Regular stop,-6.84425,39.215618333,0,,
BARAKUDA-667,BARAKUDA-667,Barakuda,Regular stop,-6.842736667,39.211565,0,,
CHANG'OMBE-667,CHANG'OMBE-667,Chang'ombe,End of route. ,-6.836381667,39.205873333,0,,
MMMOJA-667,MMMOJA-667,M/mmoja,Start route,-6.818126667,39.280241667,0,,
UHURU-333,UHURU-333,Uhuru,Regular stop,-6.823938333,39.273126667,0,,
KARUME-333,KARUME-333,Karume,Regular stop,-6.826108333,39.265161667,0,,
BOMA-895,BOMA-895,Boma,Regular stop,-6.824895,39.262851667,0,,
MSIMBAZI-333,MSIMBAZI-333,Msimbazi,Regular stop,-6.822573333,39.258608333,0,,
KIGOGOMWISHO-333,KIGOGOMWISHO-333,Kigogo Mwisho,Regular stop,-6.816888333,39.251863333,0,,
CHAWOTE-665,CHAWOTE-665,Chawote,Regular stop,-6.817665,39.2488,0,,
POST-333,POST-333,Post,Regular stop,-6.817668333,39.24877,0,,
DARAJANI-837,DARAJANI-837,Darajani,Regular stop,-6.81837,39.240316667,0,,
POLISI-667,POLISI-667,Polisi,Regular stop,-6.813271667,39.239385,0,,
SHELI-667,SHELI-667,Sheli,Regular stop,-6.813261667,39.239386667,0,,
KWADOTO-954,KWADOTO-954,Kwa doto,Regular stop,-6.80954,39.239008333,0,,
BAHKRESA-505,BAHKRESA-505,Bahkresa,Regular stop,-6.809505,39.238915,0,,
KWATONGO-667,KWATONGO-667,Kwa tongo,Regular stop,-6.808381667,39.236761667,0,,
MBURAHATI-667,MBURAHATI-667,Mburahati,End of route.  Not a big station.,-6.803441667,39.235905,0,,
MABIBOMWISHO-333,MABIBOMWISHO-333,Mabibo mwisho,Start route,-6.809408333,39.222301667,0,,
MWEMBENI-445,MWEMBENI-445,Mwembeni,Regular stop,-6.811445,39.226043333,0,,
LOYOLA-333,LOYOLA-333,Loyola,Regular stop,-6.813608333,39.22906,0,,
LUHANGA-667,LUHANGA-667,Luhanga,Regular stop,-6.816011667,39.234965,0,,
KIGOGODARAJANI-667,KIGOGODARAJANI-667,Kigogo darajani,Regular stop,-6.818356667,39.240395,0,,
KIGOGOCCM-807,KIGOGOCCM-807,Kigogo ccm,Regular stop,-6.81807,39.243573333,0,,
POLISI-667,POLISI-667,Polisi,Regular stop,-6.818091667,39.247068333,0,,
NJIAPANDA-667,NJIAPANDA-667,Njia panda,Regular stop,-6.816731667,39.254701667,0,,
BOMA-667,BOMA-667,Boma,Regular stop,-6.824581667,39.262725,0,,
KARUME-955,KARUME-955,Karume,Regular stop,-6.825955,39.266025,0,,
CHINAPLAZA-825,CHINAPLAZA-825,China plaza,Regular stop,-6.825,39.268658333,0,,
GEREZANI-525,GEREZANI-525,Gerezani,Regular stop,-6.824525,39.274113333,0,,
LUMUMBA-667,LUMUMBA-667,Lumumba,Regular stop,-6.822761667,39.280195,0,,
MNAZIMMOJA-,MNAZIMMOJA-,Mnazi mmoja,End route,,,0,,
MWENGESOKONI-667,MWENGESOKONI-667,Mwenge sokoni,Start of route. Not a large station just a regular stop,-6.767956667,39.22837,0,,
AFRICASANA-045,AFRICASANA-045,Africa sana,Regular stop,-6.773045,39.233486667,0,,
SHULE-667,SHULE-667,Shule,Regular stop,-6.775651667,39.23074,0,,
MORI-333,MORI-333,Mori,Regular stop,-6.777138333,39.229455,0,,
MAKABURINI-808,MAKABURINI-808,Makaburini,Regular stop,-6.7808,39.223581667,0,,
PALESTINA-095,PALESTINA-095,Palestina,Regular stop,-6.783095,39.222756667,0,,
MADUKANI-333,MADUKANI-333,Madukani,Regular stop,-6.788053333,39.22247,0,,
SHEKILANGO-667,SHEKILANGO-667,Shekilango,Regular stop,-6.794871667,39.21938,0,,
KILIMANJARO-667,KILIMANJARO-667,Kilimanjaro,Regular stop,-6.795281667,39.219843333,0,,
KONA-333,KONA-333,Kona,Regular stop,-6.797203333,39.226186667,0,,
MAHAKAMAYANDIZI-004,MAHAKAMAYANDIZI-004,Mahakama ya ndizi,Regular stop,-6.8004,39.225246667,0,,
CHUO-365,CHUO-365,Chuo,Regular stop,-6.805365,39.22358,0,,
MWEMBENI-333,MWEMBENI-333,Mwembeni,Regular stop,-6.810198333,39.223905,0,,
HOSTEL-333,HOSTEL-333,Hostel,Regular stop,-6.813578333,39.22905,0,,
LOYOLA-547,LOYOLA-547,Loyola,Regular stop,-6.81547,39.231423333,0,,
LUHANGA-596,LUHANGA-596,Luhanga,Regular stop,-6.81596,39.235495,0,,
KIGOGOMWISHO-667,KIGOGOMWISHO-667,Kigogo mwisho,Regular stop,-6.816746667,39.238733333,0,,
CHAWOTE-333,CHAWOTE-333,Chawote,Regular stop,-6.818078333,39.247056667,0,,
NJIAPANDA-425,NJIAPANDA-425,Njia panda,Regular stop,-6.816425,39.25461,0,,
BOMA-667,BOMA-667,Boma,Regular stop,-6.824666667,39.26305,0,,
KARUME-579,KARUME-579,Karume,Regular stop,-6.82579,39.266421667,0,,
CONGO-357,CONGO-357,Congo,Regular stop,-6.82357,39.274041667,0,,
KARIAKOO-667,KARIAKOO-667,Kariakoo,Regular stop,-6.822221667,39.277316667,0,,
BAHKRESA-333,BAHKRESA-333,Bahkresa,Regular stop,-6.822223333,39.277321667,0,,
MNAZIMMOJA-315,MNAZIMMOJA-315,Mnazi mmoja,End of route. Not a large station. Just regular stop.,-6.821315,39.28009,0,,
MAKUMBUSHO-735,MAKUMBUSHO-735,Makumbusho,Large bus stand,-6.778241735,39.246332405,0,,
MAGENGE-044,MAGENGE-044,Magenge,Smal stop,-6.784649044,39.25170805,0,,
HOSPITAL-305,HOSPITAL-305,Hospital,Regular stop,-6.788050305,39.253214605,0,,
MWANANYAMALAA-854,MWANANYAMALAA-854,Mwananyamala A,Regular stop,-6.79025854,39.253848144,0,,
KOMAKOMA-834,KOMAKOMA-834,Komakoma,Regular stop,-6.791492834,39.257023533,0,,
VIJANA-211,VIJANA-211,Vijana,Regular stop,-6.792773211,39.261053636,0,,
STUDIOKINONDONI-748,STUDIOKINONDONI-748,Studio Kinondoni,Regular stop,-6.792584748,39.264299612,0,,
MKWAJUNI-452,MKWAJUNI-452,Mkwajuni,Regular stop,-6.797062452,39.26375402,0,,
MAGOMENIKANISANI-725,MAGOMENIKANISANI-725,Magomeni Kanisani,Regular stop,-6.804849725,39.25936614,0,,
MAGOMENIMIKUMI-142,MAGOMENIMIKUMI-142,Magomeni Mikumi,Regular stop,-6.809905142,39.256211456,0,,
NJIAPANDAKIGOGO-285,NJIAPANDAKIGOGO-285,Njia Panda Kigogo,Regular stop,-6.816182285,39.254591981,0,,
SAMBUSA-296,SAMBUSA-296,Sambusa,Regular stop,-6.820863296,39.257494754,0,,
AMANAHOSPITAL-812,AMANAHOSPITAL-812,Amana hospital,Major stop,-6.828010812,39.258359058,0,,
BUNGONI-455,BUNGONI-455,Bungoni,Regular stop,-6.828037455,39.258244409,0,,
MALAPA-771,MALAPA-771,Malapa,Regular stop,-6.829738771,39.251637832,0,,
BUGURUNISOKONI-371,BUGURUNISOKONI-371,Buguruni Sokoni,Regular stop,-6.835675371,39.24598792,0,,
RELINI-496,RELINI-496,Relini,Small stop,-6.839672496,39.238896573,0,,
KIDARAJANI-456,KIDARAJANI-456,Kidarajani,Small stop,-6.842137456,39.235512518,0,,
SIMBA-749,SIMBA-749,Simba,Small stop,-6.843253749,39.232705428,0,,
PERAPERA-831,PERAPERA-831,Perapera,Small stop,-6.843509831,39.22986977,0,,
DARAJANI-016,DARAJANI-016,Darajani,Small stop,-6.843448016,39.220493406,0,,
ARAFA-686,ARAFA-686,Arafa,Small stop,-6.843850686,39.218435398,0,,
BARACUDA-968,BARACUDA-968,Baracuda,Major stop,-6.842633968,39.211466888,0,,
MWEMBENI-268,MWEMBENI-268,Mwembeni,Small stop,-6.837352268,39.206794434,0,,
TCHANG'OMBE-753,TCHANG'OMBE-753,T/Chang'ombe,Major stop/destination of the route,-6.836259753,39.205554793,0,,
MAKUMBUSHO-064,MAKUMBUSHO-064,Makumbusho,Large bus stop,-6.778414064,39.246675315,0,,
SAYANSI-334,SAYANSI-334,Sayansi,Regular stop,-6.773203334,39.240389544,0,,
BAMAGA-495,BAMAGA-495,Bamaga,Regular stop,-6.769317495,39.235358941,0,,
ITVMWENGE-454,ITVMWENGE-454,Itv  Mwenge,Regular stop,-6.767099454,39.232510923,0,,
MPAKANI-791,MPAKANI-791,Mpakani,Major stop,-6.768081791,39.226228476,0,,
LUFUNGIRA-161,LUFUNGIRA-161,Lufungira,Regular stop,-6.770719161,39.223719572,0,,
MLIMANISHELI-407,MLIMANISHELI-407,Mlimani sheli,Regular stop,-6.770884407,39.223576115,0,,
MLIMANICITY-182,MLIMANICITY-182,Mlimani city,Regular stop,-6.77352182,39.221465498,0,,
KIVULINI-293,KIVULINI-293,Kivulini,Regular stop,-6.77702293,39.218890864,0,,
MJENGONI-613,MJENGONI-613,Mjengoni,Small stop,-6.78834613,39.209229585,0,,
RIVERSIDE-274,RIVERSIDE-274,River side,Major stop,-6.800692274,39.206822637,0,,
MABIBOHOSTEL-453,MABIBOHOSTEL-453,Mabibo Hostel,Regular stop,-6.801006453,39.206978947,0,,
UBUNGOEXTERNAL-546,UBUNGOEXTERNAL-546,Ubungo External,Regular stop,-6.805946546,39.213725206,0,,
GARAGE-056,GARAGE-056,Garage,Regular stop,-6.811509056,39.216699823,0,,
MWANANCHI-244,MWANANCHI-244,Mwananchi,Regular stop,-6.816403244,39.22223831,0,,
TOT-411,TOT-411,TOT,Small stop,-6.820561411,39.227906774,0,,
RELINI-762,RELINI-762,Relini,Regular stop,-6.825501762,39.231067649,0,,
AROMA-721,AROMA-721,Aroma,Major stop,-6.828404721,39.231819048,0,,
TSHULE-929,TSHULE-929,T/Shule,Regular stop,-6.830185929,39.227658215,0,,
MUSLIMU-413,MUSLIMU-413,Muslimu,Small stop,-6.830002413,39.226485415,0,,
BIMA-373,BIMA-373,Bima,Major stop,-6.831062373,39.220785545,0,,
MAGENGENI-395,MAGENGENI-395,Magengeni,Small stop,-6.835600395,39.216284459,0,,
POSTA-236,POSTA-236,Posta,Small stop,-6.837869236,39.214396806,0,,
DARAJANI-821,DARAJANI-821,Darajani,Small stop,-6.843019821,39.208873772,0,,
CHAMA-454,CHAMA-454,Chama,Small stop,-6.844462454,39.198558172,0,,
TSEGEREA-629,TSEGEREA-629,T/Segerea,"Large bus stop,-6.844215629,39.186606248,0,,
BUZAKANISANI-667,BUZAKANISANI-667,Buza kanisani,Regular stop,-6.892311667,39.226251667,0,,
KWAMAMAKIBONGE-667,KWAMAMAKIBONGE-667,Kwa mama kibonge,Regular stop,-6.891011667,39.241155,0,,
ABIOLA-667,ABIOLA-667,Abiola,Regular stop,-6.884751667,39.243106667,0,,
KWAMWINYI-,KWAMWINYI-,Kwa mwinyi,Failure to capture coordinates,,,0,,
CHAMA-585,CHAMA-585,Chama,Regular stop,-6.877585,39.24977,0,,
TANDIKA-333,TANDIKA-333,Tandika,Regular stop,-6.869423333,39.262563333,0,,
SUDAN-333,SUDAN-333,Sudan,Regular stop,-6.863958333,39.26348,0,,
TEMEKESTAND-333,TEMEKESTAND-333,Temeke stand,Regular stop,-6.863973333,39.264496667,0,,
KWAAZIZIALI-667,KWAAZIZIALI-667,Kwa Azizi ali,Regular stop,-6.868131667,39.274988333,0,,
MTONGANI-455,MTONGANI-455,Mtongani,Regular stop,-6.87455,39.271783333,0,,
MISHENI-667,MISHENI-667,Misheni,Regular stop,-6.890606667,39.268916667,0,,
SABASABA-667,SABASABA-667,Sabasaba,Regular stop,-6.895316667,39.267813333,0,,
KIZUIANI-333,KIZUIANI-333,Kizuiani,Regular stop,-6.903848333,39.269558333,0,,
ZAKIEMU-825,ZAKIEMU-825,Zakiemu,Regular stop,-6.912825,39.27036,0,,
FOMA-333,FOMA-333,Foma,Regular stop,-6.928738333,39.26295,0,,
KWAMBIVU-667,KWAMBIVU-667,Kwa  mbivu,Regular stop,-6.931186667,39.258263333,0,,
MALIASILI-333,MALIASILI-333,Mali asili,Regular stop,-6.933588333,39.250311667,0,,
MATITU-534,MATITU-534,Matitu,Regular stop,-6.93534,39.24702,0,,
NYUMBANYEUPE-245,NYUMBANYEUPE-245,Nyumba nyeupe,Regular stop,-6.938245,39.241556667,0,,
MZAMBARAUNI-333,MZAMBARAUNI-333,Mzambarauni,Regular stop,-6.938738333,39.240335,0,,
KANISANI-247,KANISANI-247,Kanisani,Regular stop,-6.94247,39.236325,0,,
KWAMKONGO-667,KWAMKONGO-667,Kwa mkongo,Regular stop,-6.948471667,39.22913,0,,
CHAMANZI-105,CHAMANZI-105,Chamanzi,Regular stop,-6.949105,39.228743333,0,,
NJIAPANDAYAMACHIMBO-333,NJIAPANDAYAMACHIMBO-333,Njia panda ya machimbo,Regular stop,-6.951908333,39.226991667,0,,
MFENESINI-333,MFENESINI-333,Mfenesini,Regular stop,-6.955118333,39.225368333,0,,
KWAMADINDA-333,KWAMADINDA-333,Kwa madinda,Regular stop,-6.957818333,39.225056667,0,,
MIKUMI-667,MIKUMI-667,Mikumi,Regular stop,-6.961011667,39.22534,0,,
BAMIA-333,BAMIA-333,Bamia,Regular stop,-6.968103333,39.225993333,0,,
KIPONZA-333,KIPONZA-333,Kiponza,Regular stop,-6.974098333,39.215821667,0,,
KWATINYANGO-667,KWATINYANGO-667,Kwa tinyango,Regular stop,-6.975846667,39.214725,0,,
MBANDESOKONI-333,MBANDESOKONI-333,Mbande sokoni,Regular stop,-6.977748333,39.21093,0,,
KWAMSWAKI-333,KWAMSWAKI-333,Kwa mswaki,Regular stop,-6.976933333,39.20531,0,,
KISEWE-333,KISEWE-333,Kisewe,Regular stop,-6.975463333,39.202081667,0,,
KISEWE-667,KISEWE-667,Kisewe,Major stop,-6.976231667,39.202351667,0,,
MBANDESOKONI-265,MBANDESOKONI-265,Mbande sokoni,Regular stop,-6.978265,39.209173333,0,,
MBANDE-667,MBANDE-667,Mbande,Regular stop,-6.977126667,39.213571667,0,,
MKONZA-667,MKONZA-667,Mkonza,Regular stop,-6.970801667,39.22017,0,,
CHAMAZI-667,CHAMAZI-667,Chamazi,Regular stop,-6.947886667,39.229333333,0,,
KANISANI-364,KANISANI-364,Kanisani,Regular stop,-6.94364,39.234391667,0,,
MZAMBARAUNI-535,MZAMBARAUNI-535,Mzambarauni,Regular stop,-6.938535,39.240651667,0,,
MSIKITINI-667,MSIKITINI-667,Msikitini,Regular stop,-6.935706667,39.24628,0,,
MALIASILI-405,MALIASILI-405,Maliasili,Regular stop,-6.933405,39.250615,0,,
KWAMBIGU-667,KWAMBIGU-667,Kwa mbigu,Regular stop,-6.931791667,39.256836667,0,,
CHALAMBEMAGENGENI-333,CHALAMBEMAGENGENI-333,Chalambe magengeni,Regular stop,-6.927548333,39.265275,0,,
MBAGALARANGINGTATU-333,MBAGALARANGINGTATU-333,Mbagala ranging tatu,Major stop,-6.920098333,39.270613333,0,,
ZAKIEMU-,ZAKIEMU-,Zakiemu,Regular stop,,,0,,
MISHENI-667,MISHENI-667,Misheni,Regular stop,-6.890381667,39.268765,0,,
MTONGANI-747,MTONGANI-747,Mtongani,Regular stop,-6.8747,39.27141,0,,
AZIZIALI-333,AZIZIALI-333,Azizi Ali,Regular stop,-6.867378333,39.275091667,0,,
UHASIBU-667,UHASIBU-667,Uhasibu,Regular stop,-5.841666666666667,39.261944444444445,0,,
JKT-333,JKT-333,JKT,Regular stop,-6.851228333,39.281226667,0,,
UFUNDI-627,UFUNDI-627,Ufundi,Regular stop,-6.84627,39.282865,0,,
BANDARI-667,BANDARI-667,Bandari,Regular stop,-6.831186667,39.286133333,0,,
GOLDSTAR-333,GOLDSTAR-333,Goldstar,Regular stop,-6.826648333,39.277386667,0,,
STESHENI-667,STESHENI-667,Stesheni,Major stop,-6.821816667,39.285186667,0,,
MBRANGI3-333,MBRANGI3-333,Mb/rangi 3,Regular stop,-6.918583333333333,39.27075,0,,
ZAKHEIM-445,ZAKHEIM-445,Zakheim,Regular stop,-6.912694444444445,39.269999999999996,0,,
KIZUIANI-778,KIZUIANI-778,kizuiani,Regular stop,-6.908027777777778,39.269638888888885,0,,
KIPATI-889,KIPATI-889,Kipati,Regular stop,-6.900908888888889,39.26904694444444,0,,
SABASABA-111,SABASABA-111,sabasaba,Regular stop,-6.89549111111111,39.26754888888889,0,,
MISSION-185,MISSION-185,Mission,Regular stop,-6.89185,39.26773194444444,0,,
MSIKITINI-111,MSIKITINI-111,Msikitini,Regular stop,-6.88451111111111,39.26836111111111,0,,
MTONGANI-001,MTONGANI-001,mtongani,Regular stop,-6.874605000000001,39.27146111111111,0,,
AZIZIALI-556,AZIZIALI-556,Azizi ali,Regular stop,-6.867283055555556,39.27504166666667,0,,
UHASIBU-111,UHASIBU-111,Uhasibu,Regular stop,-6.857231111111111,39.27816111111111,0,,
TAIFA-111,TAIFA-111,Taifa,Regular stop,-6.857231111111111,39.272286944444446,0,,
SERENGETI-111,SERENGETI-111,Serengeti,Regular stop,-6.85319111111111,39.266601944444446,0,,
SOKOTA-555,SOKOTA-555,Sokota,Regular stop,-6.847528055555555,39.258430555555556,0,,
VETENARY-555,VETENARY-555,Vetenary,Regular stop,-6.849763055555555,39.258430555555556,0,,
SOKONI-819,SOKONI-819,sokoni,Regular stop,-6.84819,39.249122222222226,0,,
TAZARA-915,TAZARA-915,Tazara,Regular stop,-6.845915,39.24705277777778,0,,
"KARAKANA-MCHICHA6°50'50.3""S39°14'19.6""E"-555,"KARAKANA-MCHICHA6°50'50.3""S39°14'19.6""E"-555,"Karakana - mchicha 6°50'50.3""S 39°14'19.6""E",Regular stop,-6.847305555555555,39.23877777777778,0,,
VINGUNGUTI-225,VINGUNGUTI-225,Vingunguti,Regular stop,-6.85225,39.2295,0,,
KIPAWA-666,KIPAWA-666,Kipawa,Regular stop,-6.859416666666666,39.214333333333336,0,,
AIRPORT-111,AIRPORT-111,Airport,Regular stop,-6.86011111111111,39.21288888888889,0,,
POSTA-555,POSTA-555,Posta,Regular stop,-6.865555555555555,39.20125,0,,
NJIAPANDASEGEREA-111,NJIAPANDASEGEREA-111,Njia panda segerea,Regular stop,-6.868861111111111,39.19447222222222,0,,
BANANA-445,BANANA-445,Banana,Regular stop,-6.871194444444445,39.18975,0,,
UKONGA-667,UKONGA-667,Ukonga,Regular stop,-6.874416666666667,39.17894444444444,0,,
MADAFU-667,MADAFU-667,Madafu,Regular stop,-6.875416666666667,39.17397222222222,0,,
"MZAMBARAUNI6°52'45.3""S39°09'53.8""E"-001,"MZAMBARAUNI6°52'45.3""S39°09'53.8""E"-001,"Mzambarauni 6°52'45.3""S 39°09'53.8""E",Regular stop,-6.879250000000001,39.164944444444444,0,,
"KITUOKYPYA6°52'47.5""S39°09'40.6""E"-111,"KITUOKYPYA6°52'47.5""S39°09'40.6""E"-111,"Kituo kypya  6°52'47.5""S 39°09'40.6""E",Regular stop,-6.879861111111111,39.16127777777778,0,,
"GMBOTO6°52'56.2""S39°09'22.9""E"-778,"GMBOTO6°52'56.2""S39°09'22.9""E"-778,"G/Mboto 6°52'56.2""S 39°09'22.9""E",Regular stop,-6.882277777777778,39.15636111111111,0,,
MBEZI-631,MBEZI-631,Mbezi,Large bus  stop,-6.78631,39.112308333,0,,
KIBANDACHAMKAA-333,KIBANDACHAMKAA-333,Kibanda cha mkaa,Regular stop,-6.782898333,39.124528333,0,,
MSUGULI-667,MSUGULI-667,Msuguli,Regular stop,-6.788966667,39.131345,0,,
TEMBONI-555,TEMBONI-555,Temboni,Regular stop,-6.790555,39.13927,0,,
SUKA-667,SUKA-667,Suka,Regular stop,-6.791171667,39.146326667,0,,
STOPOVER-667,STOPOVER-667,Stop over,Regular stop,-6.787321667,39.156643333,0,,
KIMARAMWISHO-623,KIMARAMWISHO-623,Kimara Mwisho,Large bus stop,-6.78623,39.166176667,0,,
KOROGWE-667,KOROGWE-667,Korogwe,Regular stop,-6.788881667,39.18165,0,,
BUCHA-333,BUCHA-333,Bucha,Regular stop,-6.789063333,39.182126667,0,,
BARUTI-333,BARUTI-333,Baruti,Regular bus stop,-6.790503333,39.185701667,0,,
KONA-667,KONA-667,Kona,Regular stop,-6.789996667,39.191141667,0,,
KIBO-667,KIBO-667,Kibo,Regular stop,-6.790236667,39.196471667,0,,
UBUNGOMAJI-315,UBUNGOMAJI-315,Ubungo Maji,Regular stop,-6.791315,39.205165,0,,
RIVERSIDE-333,RIVERSIDE-333,River side,Regular stop,-6.795833333333333,39.207501667,0,,
HOSTELIMABIBO-333,HOSTELIMABIBO-333,Hosteli mabibo,Regular stop,-6.803943333,39.21051,0,,
UBUNGOEXTERNAL-598,UBUNGOEXTERNAL-598,Ubungo external,Regular stop,-6.80598,39.213723333,0,,
GARAGE-154,GARAGE-154,Garage,Regular stop,-6.81154,39.216591667,0,,
MWANANCHI-333,MWANANCHI-333,Mwananchi,Regular stop,-6.816298333,39.222006667,0,,
TOT-495,TOT-495,TOT,Regular stop,-6.820495,39.227835,0,,
TRELINI-333,TRELINI-333,T/Relini,Regular stop,-6.824908333,39.232175,0,,
BUGURUNICHAMA-333,BUGURUNICHAMA-333,Buguruni Chama,Major stop,-6.839363333,39.243988333,0,,
TAZARA-598,TAZARA-598,Tazara,Regular stop,-6.8440598,39.2460788,0,,
VETERANI-667,VETERANI-667,Veterani,Regular stop,-6.849751667,39.252245,0,,
SOKOTA-515,SOKOTA-515,Sokota,Regular stop,-6.847515,39.258655,0,,
SERENGETI-333,SERENGETI-333,Serengeti,Regular stop,-6.851888333,39.265078333,0,,
TAIFA-333,TAIFA-333,Taifa,Regular stop,-6.857208333,39.272495,0,,
UHASIBU-015,UHASIBU-015,Uhasibu,Regular stop,-6.858015,39.27907,0,,
AZIZIALI-333,AZIZIALI-333,Azizi Ali,Regular stop,-6.868268333,39.27497,0,,
MTONGANI-667,MTONGANI-667,Mtongani,Regular stop,-6.874501667,39.27178,0,,
MSIKITINI-333,MSIKITINI-333,Msikitini,Regular stop,-6.884833333,39.26862,0,,
MISSION-667,MISSION-667,Mission,Regular stop,-6.890496667,39.268931667,0,,
SABASABA-333,SABASABA-333,Sabasaba,Regular stop,-6.895138333,39.267763333,0,,
KIZUIANI-667,KIZUIANI-667,Kizuiani,Regular stop,-6.904866667,39.269655,0,,
ZAKIEMU-667,ZAKIEMU-667,Zakiemu,Regular stop,-6.913311667,39.270355,0,,
MBAGALARANGI3-333,MBAGALARANGI3-333,Mbagala Rangi 3,Large bus stop,-6.917378333,39.269856667,0,,
MBEZI-244,MBEZI-244,Mbezi,Regular stop,-6.787244,39.111978,0,,
MSANGI-873,MSANGI-873,Msangi,Regular stop,-6.791873,39.116068,0,,
PALESTINA-029,PALESTINA-029,Palestina,Regular stop,-6.800029,39.113366,0,,
MASLEI-325,MASLEI-325,Maslei,Small,-6.803325,39.112875,0,,
NJIAPANDA-275,NJIAPANDA-275,Njia panda,Regular stop,-6.807275,39.108219,0,,
MAKUTI-525,MAKUTI-525,Makuti,Regular stop,-6.810525,39.108117,0,,
MSIKITINI-229,MSIKITINI-229,Msikitini,Regular stop,-6.81229,39.107558,0,,
KWABIBI-433,KWABIBI-433,Kwa bibi,Regular stop,-6.816433,39.108205,0,,
KANISANI-439,KANISANI-439,Kanisani,Regular stop,-6.822439,39.111584,0,,
KWANIPE-696,KWANIPE-696,Kwanipe,Regular stop,-6.826696,39.113046,0,,
KWARICHARD-978,KWARICHARD-978,Kwa Richard,Regular stop,-6.832978,39.1161,0,,
KIFURU-708,KIFURU-708,Kifuru,Regular stop,-6.836708,39.120845,0,,
G7-935,G7-935,G7,Regular stop,-6.838935,39.126136,0,,
MWANZOMGUMU-968,MWANZOMGUMU-968,Mwanzo mgumu,Regular stop,-6.83968,39.128597,0,,
VICTORIA-815,VICTORIA-815,Victoria,Regular stop,-6.839815,39.130781,0,,
KWAMAKOFIA-103,KWAMAKOFIA-103,Kwa makofia,Regular stop,-6.839103,39.137833,0,,
DUKALADAWA-597,DUKALADAWA-597,Duka ladawa,Regular stop,-6.838597,39.142744,0,,
KANISANI-728,KANISANI-728,Kanisani,Regular stop,-6.839728,39.145914,0,,
KINYEREZI-031,KINYEREZI-031,Kinyerezi,Regular stop,-6.841031,39.147588,0,,
KINYEREZI-574,KINYEREZI-574,Kinyerezi,Regular stop,-6.840574,39.148498,0,,
MADUKANI-967,MADUKANI-967,Madukani,Regular stop,-6.840967,39.152233,0,,
SHULE-435,SHULE-435,Shule,Regular stop,-6.843435,39.156742,0,,
MSIKITINI-074,MSIKITINI-074,Msikitini,Regular stop,-6.844074,39.161619,0,,
GEREJI-072,GEREJI-072,Gereji,Regular stop,-6.845072,39.164608,0,,
SALUNI-407,SALUNI-407,Saluni,Regular stop,-6.84407,39.168329,0,,
MAFTATAA-447,MAFTATAA-447,Maftataa,Regular stop,-6.843447,39.170032,0,,
MBUYUNI-306,MBUYUNI-306,Mbuyuni,Regular stop,-6.84306,39.17251,0,,
MAGEREZA-203,MAGEREZA-203,Magereza,Regular stop,-6.84203,39.180287,0,,
T\SEGEREA-771,T\SEGEREA-771,T\segerea,Regular stop,-6.843771,39.186216,0,,
MB-RANGI3-189,MB-RANGI3-189,Mb-Rangi 3,Regular stop,-6.917189,39.269981,0,,
ZAKIEMU-252,ZAKIEMU-252,Zakiemu,Regular stop,-6.914252,39.27014,0,,
KIZUIANI-048,KIZUIANI-048,Kizuiani,Regular stop,-6.905048,39.269443,0,,
KIPATI-909,KIPATI-909,Kipati,Regular stop,-6.900909,39.269047,0,,
SABASABA-491,SABASABA-491,Sabasaba,Regular stop,-6.895491,39.267549,0,,
MISSION-685,MISSION-685,Mission,Regular stop,-6.891685,39.267732,0,,
MSIKITI-511,MSIKITI-511,Msikiti,Regular stop,-6.884511,39.268361,0,,
MTONGANI-605,MTONGANI-605,Mtongani,Regular stop,-6.874605,39.271463,0,,
AZIZIALI-283,AZIZIALI-283,Azizi ali,Regular stop,-6.867283,39.275042,0,,
UHASIBU-007,UHASIBU-007,Uhasibu,Regular stop,-6.86007,39.27798,0,,
TAIFA-452,TAIFA-452,Taifa,Regular stop,-6.846452,39.273557,0,,
TAMECO-484,TAMECO-484,Tameco,Regular stop,-6.842484,39.273324,0,,
KEKO-548,KEKO-548,Keko,Regular stop,-6.840548,39.272974,0,,
VETA-227,VETA-227,Veta,Regular stop,-6.835227,39.270301,0,,
KARUME-158,KARUME-158,Karume,Regular stop,-6.828158,39.266675,0,,
BOMA-832,BOMA-832,Boma,Regular stop,-6.825832,39.264711,0,,
MSIMBAZI-503,MSIMBAZI-503,Msimbazi,Regular stop,-6.821503,39.257684,0,,
SIMU2000-998,SIMU2000-998,Simu 2000,Regular stop,-6.787998,39.216687,0,,
EXTERNAL-941,EXTERNAL-941,External,Regular stop,-6.805941,39.213646,0,,
GARAGE-417,GARAGE-417,Garage,Regular stop,-6.811417,39.216591,0,,
MWANANCHI-419,MWANANCHI-419,Mwananchi,Regular stop,-6.816419,39.22213,0,,
TIOT-498,TIOT-498,Tiot,Regular stop,-6.820498,39.227812,0,,
TABATA-677,TABATA-677,Tabata,Regular stop,-6.824677,39.232001,0,,
MATUNGI-161,MATUNGI-161,Matungi,Regular stop,-6.827161,39.234393,0,,
BUGURUNI-412,BUGURUNI-412,Buguruni,Regular stop,-6.839412,39.243961,0,,
TAZARA-915,TAZARA-915,Tazara,Regular stop,-6.845915,39.247054,0,,
SOKONI-819,SOKONI-819,Sokoni,Regular stop,-6.84819,39.249124,0,,
VETERINARY-763,VETERINARY-763,Veterinary,Regular stop,-6.849763,39.252354,0,,
SOKOTA-528,SOKOTA-528,Sokota,Regular stop,-6.847528,39.258432,0,,
SERENGRETI-191,SERENGRETI-191,Serengreti,Regular stop,-6.853191,39.266602,0,,
TAIFA-231,TAIFA-231,Taifa,Regular stop,-6.857231,39.272287,0,,
UHASIBU-055,UHASIBU-055,Uhasibu,Regular stop,-6.860055,39.278161,0,,
AZIZIALI-465,AZIZIALI-465,Azizi ali,Regular stop,-6.868465,39.274918,0,,
MTONGANI-643,MTONGANI-643,Mtongani,Regular stop,-6.874643,39.271691,0,,
MSIKITINI-577,MSIKITINI-577,Msikitini,Regular stop,-6.884577,39.26862,0,,
MISSION-273,MISSION-273,Mission,Regular stop,-6.890273,39.268995,0,,
SABASABA-524,SABASABA-524,Sabasaba,Regular stop,-6.89524,39.267779,0,,
KIPATI-385,KIPATI-385,Kipati,Regular stop,-6.900385,39.269349,0,,
KIZUIANI-699,KIZUIANI-699,Kizuiani,Regular stop,-6.904699,39.269627,0,,
ZAKIEMU-329,ZAKIEMU-329,Zakiemu,Regular stop,-6.913329,39.27037,0,,
MB-RANGI-737,MB-RANGI-737,Mb - rangi,Regular stop,-6.91737,39.26969,0,,
KAWEMKWAMANI-021,KAWEMKWAMANI-021,Kawe mkwamani,Large bus stop,-6.73595021,39.22292932,0,,
KANISANI-273,KANISANI-273,Kanisani,Small bus stop,-6.7376273,39.22706135,0,,
KAWEMWISHO-668,KAWEMWISHO-668,Kawe mwisho,Large bus stop,-6.73932668,39.22973446,0,,
JKT-534,JKT-534,Jkt,Small bus stop,-6.74536534,39.23896536,0,,
CLOUDSNJIAPANDA-824,CLOUDSNJIAPANDA-824,Clouds njia panda,Small bus stop,-6.749824,39.24151187,0,,
KWAWARIOBA-531,KWAWARIOBA-531,Kwa warioba,Small bus stop,-6.75495531,39.24583148,0,,
KWAMWALIMU-244,KWAMWALIMU-244,Kwa mwalimu,Small bus stop,-6.75930244,39.25130274,0,,
KWAMWINYI-305,KWAMWINYI-305,Kwa mwinyi,Small bus stop,-6.76053305,39.2523176,0,,
CHAMA-184,CHAMA-184,Chama,Small bus stop,-6.76626184,39.25982701,0,,
KISIWA-074,KISIWA-074,Kisiwa,Small bus stop,-6.76904074,39.26278202,0,,
UBALOZI-787,UBALOZI-787,Ubalozi,Small bus stop,-6.77427787,39.26404449,0,,
MOROCCO-012,MOROCCO-012,Morocco,Large bus stop,-6.77828012,39.26391861,0,,
BIAFRA-534,BIAFRA-534,Biafra,Small bus stop,-6.78098534,39.26376684,0,,
KINONDONIB-427,KINONDONIB-427,Kinondoni b,Small bus stop,-6.78873427,39.26350104,0,,
STUDIO-133,STUDIO-133,Studio,Small bus stop,-6.79183133,39.26413216,0,,
MKWAJUNI-502,MKWAJUNI-502,Mkwajuni,Small bus stop,-6.79705502,39.2637288,0,,
KANISANI-882,KANISANI-882,Kanisani,Small bus stop,-6.80465882,39.25961247,0,,
MIKUMI-312,MIKUMI-312,Mikumi,Small bus stop,-6.80977312,39.25626827,0,,
NJIAPANDAKIGOGO-945,NJIAPANDAKIGOGO-945,Njia panda kigogo,Small bus stop,-6.81674945,39.25472808,0,,
ILALABOMA-457,ILALABOMA-457,Ilala boma,Small bus stop,-6.82254457,39.25896538,0,,
KARUME-745,KARUME-745,Karume,Small bus stop,-6.82536745,39.26445334,0,,
MCOMPLEX-623,MCOMPLEX-623,M/complex,Large bus stop,-6.82858623,39.2672738,0,,
KEKO-855,KEKO-855,Keko,Small bus stop,-6.83998855,39.27291378,0,,
DUCE-364,DUCE-364,Duce,Small bus stop,-6.84910364,39.27517613,0,,
UHASIBU-792,UHASIBU-792,Uhasibu,Small bus stop,-6.85967792,39.27832705,0,,
KWAAZIZALLY-206,KWAAZIZALLY-206,Kwa aziz ally,Small bus stop,-6.86628206,39.27560186,0,,
MTONGANI-479,MTONGANI-479,Mtongani,Large bus stop,-6.87459479,39.27177388,0,,
MUHIMBILI-667,MUHIMBILI-667,Muhimbili,Start of route,-6.806291667,39.273753333,0,,
MUHIMBILI-333,MUHIMBILI-333,Muhimbili,Regular stop,-6.807948333,39.275728333,0,,
FIRE-055,FIRE-055,Fire,Regular stop,-6.812055,39.273598333,0,,
BIGBON-848,BIGBON-848,Bigbon,Regular stop,-6.81848,39.27417,0,,
NOSTOP-667,NOSTOP-667,No stop,Regular stop,-6.819111667,39.272363333,0,,
MAVONYO-333,MAVONYO-333,Mavonyo,Regular stop,-6.816248333,39.27002,0,,
NJIAPANDAYAKIGOGO-667,NJIAPANDAYAKIGOGO-667,Njia panda ya kigogo,Regular stop,-6.816296667,39.255363333,0,,
KIGOGOMWISHO-667,KIGOGOMWISHO-667,Kigogo mwisho,Regular stop,-6.816646667,39.253013333,0,,
SHULE-667,SHULE-667,Shule,Regular stop,-6.817621667,39.248843333,0,,
BADALA-667,BADALA-667,Badala,Regular stop,-6.817621667,39.248843333,0,,
POLISI-797,POLISI-797,Polisi,Regular stop,-6.81797,39.243968333,0,,
DARAJANI-333,DARAJANI-333,Darajani,Regular stop,-6.818403333,39.240405,0,,
LUHANGA-333,LUHANGA-333,Luhanga,Regular stop,-6.816753333,39.238641667,0,,
KIGOGOMWISHO-333,KIGOGOMWISHO-333,Kigogo mwisho,Regular stop,-6.815973333,39.235318333,0,,
LOYOLA-495,LOYOLA-495,Loyola,Regular stop,-6.816495,39.232595,0,,
MWEMBENI-865,MWEMBENI-865,Mwembeni,Regular stop,-6.811865,39.226643333,0,,
MABIBOMWISHO-924,MABIBOMWISHO-924,Mabibo mwisho,End of route,-6.80924,39.222353333,0,,
MUHIMBILI-628,MUHIMBILI-628,Muhimbili,Large stand,-6.80628,39.273723333,0,,
FIRE-685,FIRE-685,Fire,Regular stop,-6.813685,39.27337,0,,
MSIMBAZI-875,MSIMBAZI-875,Msimbazi,Regular stop,-6.818875,39.273356667,0,,
BENJAMINMKAPA-667,BENJAMINMKAPA-667,Benjamin mkapa,Regular stop,-6.824466667,39.270533333,0,,
KARUME-667,KARUME-667,Karume,Regular stop,-6.825556667,39.267171667,0,,
BOMASOKONI-345,BOMASOKONI-345,Boma sokoni,Regular stop,-6.826345,39.264731667,0,,
AMANAHOSPITAL-667,AMANAHOSPITAL-667,Amana hospital,Small stop,-6.827911667,39.258655,0,,
MALAPA-333,MALAPA-333,Malapa,Regular stop,-6.830073333,39.250398333,0,,
BUGURUNISOKONI-667,BUGURUNISOKONI-667,Buguruni sokoni,Regular stop,-6.835396667,39.24615,0,,
BUGURUNISHELI-545,BUGURUNISHELI-545,Buguruni Sheli,Regular stop,-6.837545,39.242626667,0,,
AROMA-889,AROMA-889,Aroma,Major stop,-6.828888888888889,39.23111111111111,0,,
TABATASHULE-222,TABATASHULE-222,Tabata shule,Regular stop,-6.829722222222222,39.2275,0,,
BIMA-556,BIMA-556,Bima,Regular stop,-6.830555555555556,39.22638888888889,0,,
MAWENZI-888,MAWENZI-888,Mawenzi,Small stop,-6.826388888888888,39.209722222222226,0,,
KIMANGAMWISHO-275,KIMANGAMWISHO-275,Kimanga Mwisho,Large stand,-6.8275,39.20305555555556,0,,
MUHIMBILI-687,MUHIMBILI-687,Muhimbili,Large stand,-6.806097687,39.27375529,0,,
FIRE-929,FIRE-929,Fire,Regular stop,-6.813671929,39.273463249,0,,
BENJAMINIMKAPA-462,BENJAMINIMKAPA-462,Benjamini Mkapa,Regular stop,-6.824447462,39.270905043,0,,
KARUME-406,KARUME-406,Karume,Regular stop,-6.825649406,39.26687171,0,,
BOMASOKONI-346,BOMASOKONI-346,Boma Sokoni,Regular stop,-6.82638346,39.264687235,0,,
AMANA-986,AMANA-986,Amana,Small stop,-6.827925986,39.258687401,0,,
BUGURUNIMALAPA-978,BUGURUNIMALAPA-978,Buguruni Malapa,Small stop,-6.829770978,39.251509446,0,,
BUGURUNISOKONI-332,BUGURUNISOKONI-332,Buguruni Sokoni,Regular stop,-6.835531332,39.246031658,0,,
SHELI-161,SHELI-161,Sheli,Smal stop,-6.838413161,39.242695864,0,,
RELINI-072,RELINI-072,Relini,Small stop,-6.839964072,39.238403499,0,,
SPENKO-682,SPENKO-682,Spenko,Small stop,-6.840977682,39.237059411,0,,
SIMBA-087,SIMBA-087,Simba,Small stop,-6.843299087,39.232394471,0,,
PERAPERA-494,PERAPERA-494,Perapera,Small stop,-6.84348494,39.230036286,0,,
KONA-077,KONA-077,Kona,Small stop,-6.845336077,39.224903182,0,,
MACHINJIONI-981,MACHINJIONI-981,Machinjioni,Small stop,-6.843558981,39.223122122,0,,
DARAJANI-841,DARAJANI-841,Darajani,Small stop,-6.843328841,39.221254674,0,,
BARACUDA-334,BARACUDA-334,Baracuda,Major stop,-6.842600334,39.211431431,0,,
SANENE-968,SANENE-968,Sanene,Small stop,-6.843913968,39.202954638,0,,
CHAMA-127,CHAMA-127,Chama,Small stop,-6.845051127,39.196390923,0,,
BIBI-812,BIBI-812,Bibi,Regular stop,-6.845345812,39.1951366,0,,
TSHELI-624,TSHELI-624,T/Sheli,Small stop,-6.84629624,39.187209969,0,,
TSEGEREA-944,TSEGEREA-944,T/Segerea,Large stand,-6.84342944,39.185789597,0,,
MUHIMBILI-888,MUHIMBILI-888,Muhimbili,Stop is to busy with a lot route with many passengers/large stand,-6.806196888,39.273703363,0,,
FIRE-417,FIRE-417,Fire,Regular stop,-6.8142417,39.2735671,0,,
BENJAMINI-184,BENJAMINI-184,Benjamini,Regular stop,-6.824548184,39.270676336,0,,
KARUME-406,KARUME-406,Karume,Many passengers a lot of activities take place... Small Business/Regular stop,-6.824965406,39.269204751,0,,
BOMASOKONI-216,BOMASOKONI-216,Boma sokoni,"Stop is near Boma market,-6.8264216,39.264651015,0,,
AMANA-967,AMANA-967,Amana,Regular stop,-6.827711967,39.259404212,0,,
MALAPA-413,MALAPA-413,Malapa,Small stop,-6.829597413,39.252198907,0,,
BUGURUNISOKONI-563,BUGURUNISOKONI-563,Buguruni sokoni,"Near buguruni makert,-6.835306563,39.24620888,0,,
RELINI-806,RELINI-806,Relini,Small stop,-6.839803806,39.238700547,0,,
NJIAPANDASPENKO-865,NJIAPANDASPENKO-865,Njia Panda spenko,Small stop,-6.840990865,39.237028476,0,,
KIDARAJANI-411,KIDARAJANI-411,Kidarajani,Small stop,-6.841256411,39.236689479,0,,
KWASIMBA-873,KWASIMBA-873,Kwa simba,Small stop,-6.843271873,39.232516188,0,,
KWAPELAPELA-595,KWAPELAPELA-595,Kwa Pelapela,Small stop,-6.843524595,39.229799484,0,,
MACHINJIONI-165,MACHINJIONI-165,Machinjioni,A lot of movement.. regular stop,-6.845209165,39.224777717,0,,
DARAJANI-899,DARAJANI-899,Darajani,Small stop,-6.84323899,39.221012711,0,,
MSIKITINI-488,MSIKITINI-488,Msikitini,Small stop,-6.843826488,39.218925961,0,,
TRANSFOMA-682,TRANSFOMA-682,Transfoma,Small stop,-6.844186682,39.216609332,0,,
UWANJANI-181,UWANJANI-181,Uwanjani,Small stop,-6.844998181,39.212992621,0,,
BARAKUDA-923,BARAKUDA-923,Barakuda,Major stop,-6.840992923,39.210300752,0,,
MWEMBENI-403,MWEMBENI-403,Mwembeni,Small stop,-6.83724403,39.206622075,0,,
TCHANGOMBE-582,TCHANGOMBE-582,T/Changombe,"Final destination of the route,-6.836233582,39.205738966,0,,
MWENGE(NJCOCA)-405,MWENGE(NJCOCA)-405,Mwenge (nj/Coca),Start of the route,-6.76405,39.22969,0,,
MWENGESOKONI-333,MWENGESOKONI-333,Mwenge sokoni,Regular stop,-6.767318333,39.22816,0,,
SINZAMORI-333,SINZAMORI-333,Sinza Mori,Regular stop,-6.776503333,39.230055,0,,
MAKABURINI-333,MAKABURINI-333,Makaburini,Regular stop,-6.780313333,39.224276667,0,,
KUMEKUCHA-667,KUMEKUCHA-667,Kumekucha,Regular stop,-6.786746667,39.222965,0,,
MADUKANI-667,MADUKANI-667,Madukani,Regular stop,-6.786746667,39.222965,0,,
SHEKILANGO-667,SHEKILANGO-667,Shekilango,Regular stop,-6.794836667,39.219363333,0,,
KILIMANJARO-667,KILIMANJARO-667,Kilimanjaro,Regular stop,-6.796336667,39.221141667,0,,
URAFIKI-667,URAFIKI-667,Urafiki,Regular stop,-6.797176667,39.225645,0,,
SOKONI-333,SOKONI-333,Sokoni,Regular stop,-6.799818333,39.225335,0,,
NIT-655,NIT-655,NIT,Regular stop,-6.804655,39.223888333,0,,
MABIBOMWISHO-333,MABIBOMWISHO-333,Mabibo Mwisho,Regular stop,-6.809218333,39.222146667,0,,
MWEMBENI-137,MWEMBENI-137,Mwembeni,Regular stop,-6.81137,39.225911667,0,,
HOSTEL-333,HOSTEL-333,Hostel,Regular stop,-6.813408333,39.228768333,0,,
-333,-333,,Regular stop,-6.816083333,39.236813333,0,,
DARAJANI-667,DARAJANI-667,Darajani,Regular stop,-6.816691667,39.23871,0,,
KIGOGOMWISHO-333,KIGOGOMWISHO-333,Kigogo Mwisho,Regular stop,-6.818348333,39.240511667,0,,
POST-025,POST-025,Post,Regular stop,-6.818025,39.243448333,0,,
RANDABAR-744,RANDABAR-744,Randa Bar,Regular stop,-6.81744,39.245516667,0,,
CHAWOTE-333,CHAWOTE-333,Chawote,Regular stop,-6.817608333,39.248771667,0,,
SHELLA-333,SHELLA-333,Shella,Regular stop,-6.816698333,39.252501667,0,,
NJIAPANDA-333,NJIAPANDA-333,Njia panda,Regular stop,-6.816648333,39.254668333,0,,
BOMA-667,BOMA-667,Boma,Regular stop,-6.824036667,39.261621667,0,,
KARUME-667,KARUME-667,Karume,Regular stop,-6.826006667,39.26566,0,,
MCOMPLEX-667,MCOMPLEX-667,M/complex,Regular stop,-6.826196667,39.268676667,0,,
MWENGE-401,MWENGE-401,Mwenge,Regular stop,-6.76401,39.22964,0,,
MWENGESOKONI-333,MWENGESOKONI-333,Mwenge sokoni,Regular stop,-6.767228333,39.22817,0,,
MAGOROFANI-333,MAGOROFANI-333,Magorofani,Regular stop,-6.769103333,39.229056667,0,,
MAPAMBANO-333,MAPAMBANO-333,Mapambano,Regular stop,-6.775243333,39.231045,0,,
MORI-763,MORI-763,Mori,Regular stop,-6.77763,39.228596667,0,,
PALESTINA-667,PALESTINA-667,Palestina,Regular stop,-6.782876667,39.222683333,0,,
KUMEKUCHA-333,KUMEKUCHA-333,Kumekucha,Regular stop,-6.783003333,39.222703333,0,,
MADUKANI-305,MADUKANI-305,Madukani,Regular stop,-6.786305,39.222991667,0,,
SHEKILANGO-667,SHEKILANGO-667,Shekilango,Regular stop,-6.794846667,39.21928,0,,
KILIMANJARO-333,KILIMANJARO-333,Kilimanjaro,Regular stop,-6.795203333,39.219393333,0,,
MAHAKAMAYANDIZI-667,MAHAKAMAYANDIZI-667,Mahakama ya ndizi,Regular stop,-6.800121667,39.22532,0,,
CHUO-325,CHUO-325,Chuo,Regular stop,-6.802325,39.223266667,0,,
MABIBOMWISHO-205,MABIBOMWISHO-205,Mabibo mwisho,Regular stop,-6.809205,39.222098333,0,,
MWEMBENI-333,MWEMBENI-333,Mwembeni,Regular stop,-6.811423333,39.22595,0,,
HOSTEL-667,HOSTEL-667,Hostel,Regular stop,-6.813646667,39.229051667,0,,
LUHANGA-667,LUHANGA-667,Luhanga,Regular stop,-6.815976667,39.235188333,0,,
KIGOGOMWISHO-667,KIGOGOMWISHO-667,Kigogo mwisho,Regular stop,-6.818371667,39.240455,0,,
POST-333,POST-333,Post,Regular stop,-6.818038333,39.243593333,0,,
NJIAPANDA-333,NJIAPANDA-333,Njia panda,Regular stop,-6.816573333,39.254648333,0,,
MSIMBAZI-333,MSIMBAZI-333,Msimbazi,Regular stop,-6.822573333,39.258933333,0,,
BOMA-463,BOMA-463,Boma,Regular stop,-6.82463,39.262871667,0,,
KARUME-667,KARUME-667,Karume,Regular stop,-6.826056667,39.2658,0,,
CONGO-725,CONGO-725,Congo,Regular stop,-6.823725,39.27389,0,,
LUMUMBA-333,LUMUMBA-333,Lumumba,Regular stop,-6.822988333,39.280493333,0,,
MMMOJA-333,MMMOJA-333,M/mmoja,End of route. Regular stop.,-6.818288333,39.280783333,0,,
PSTESHENI-485,PSTESHENI-485,p/stesheni,bus start,-6.880485,39.12634,0,,
KONA-556,KONA-556,kona,temporary stop,-6.877913055555556,39.14986555555556,0,,
MALIASILI-889,MALIASILI-889,Maliasili,Not regular,-6.883693888888889,39.15295305555556,0,,
GMBOTO-112,GMBOTO-112,G/mboto,busy area,-6.882241111111112,39.15622194444444,0,,
KITUOKIPYA-895,KITUOKIPYA-895,Kituo Kipya,Regular stop,-6.8797338888888895,39.16156111111111,0,,
MZAMBARAUNI-445,MZAMBARAUNI-445,Mzambarauni,Regular stop,-6.879001944444445,39.16503,0,,
MOMBASA-005,MOMBASA-005,Mombasa,Regular stop,-6.8763250000000005,39.17135305555556,0,,
MADAFU-889,MADAFU-889,Madafu,Regular stop,-6.87494388888889,39.175308055555554,0,,
MAGEREZA-895,MAGEREZA-895,Magereza,Regular stop,-6.8744088888888895,39.17897305555555,0,,
BANANA-112,BANANA-112,Banana,Regular stop,-6.871331111111112,39.17249444444444,0,,
NJIAPANDASEGEREA-116,NJIAPANDASEGEREA-116,Njia panda segerea,Regular stop,-6.8691361111111116,39.193598055555555,0,,
MAJUMBASITA-889,MAJUMBASITA-889,Majumba sita,Regular stop,-6.867373888888889,39.197179999999996,0,,
POSTA-105,POSTA-105,Posta,Regular stop,-6.8657861111111105,39.20051388888889,0,,
UWANJAWANDEGE-111,UWANJAWANDEGE-111,Uwanja wa ndege,Regular stop,-6.863361111111111,39.205515000000005,0,,
KIPAWA-444,KIPAWA-444,Kipawa,Regular stop,-6.858941944444444,39.214941111111116,0,,
SIDO-999,SIDO-999,sido,Regular stop,-6.855289999999999,39.222835,0,,
VINGUNGUTI-555,VINGUNGUTI-555,vingunguti,Regular stop,-6.8525680555555555,39.228215,0,,
KARAKANA-804,KARAKANA-804,karakana,Regular stop,-6.84804,39.23681,0,,
TAZARA-889,TAZARA-889,tazara,Regular stop,-6.781313888888889,39.25277777777778,0,,
SOKONI-819,SOKONI-819,Sokoni,Regular stop,-6.84819,39.24912388888889,0,,
VETENARY-555,VETENARY-555,vetenary,Regular stop,-6.849763055555555,39.25235388888889,0,,
SOKOTA-555,SOKOTA-555,sokota,Regular stop,-6.847528055555555,39.258431944444446,0,,
SERENGETI-111,SERENGETI-111,serengeti,Regular stop,-6.85319111111111,39.266601944444446,0,,
TAIFA-111,TAIFA-111,taifa,Regular stop,-6.857231111111111,39.272286944444446,0,,
UHASIBU-055,UHASIBU-055,uhasibu,Regular stop,-6.860055,39.27816111111111,0,,
AZIZIALI-005,AZIZIALI-005,azizi ali,Regular stop,-6.8684650000000005,39.27491805555555,0,,
MTONGANI-556,MTONGANI-556,mtongani,Regular stop,-6.874643055555556,39.27169111111111,0,,
MSIKITINI-444,MSIKITINI-444,msikitini,Regular stop,-6.884576944444444,39.26862,0,,
MISSION-555,MISSION-555,mission,Regular stop,-6.890273055555555,39.268995,0,,
SABASABA-999,SABASABA-999,sabasaba,Regular stop,-6.895239999999999,39.26777888888889,0,,
KIPATI-385,KIPATI-385,kipati,Regular stop,-6.900385,39.269348888888885,0,,
KIZUIANI-889,KIZUIANI-889,kizuiani,Regular stop,-6.904698888888889,39.26962694444445,0,,
ZAKIEMU-895,ZAKIEMU-895,zakiemu,Regular stop,-6.9133288888888895,39.27037,0,,
MBRANGI3-737,MBRANGI3-737,Mb/rangi 3,Regular stop,-6.91737,39.26969,0,,
PSTESHENI-485,PSTESHENI-485,P/stesheni,Regular stop,-6.880485,39.12634,0,,
KONA-913,KONA-913,Kona,Regular stop,-6.877913,39.133199,0,,
-946,-946,,No official stop from pugu to Gmboto,-6.87946,39.135661,0,,
MALIASILI-694,MALIASILI-694,Maliasili,Not official stop,-6.883694,39.152953,0,,
GMBOTO-241,GMBOTO-241,Gmboto,Regular stop,-6.882241,39.156222,0,,
KITUOKIPYA-734,KITUOKIPYA-734,Kituo kipya,Regular stop,-6.879734,39.161561,0,,
MZAMBARAUNI-002,MZAMBARAUNI-002,Mzambarauni,Regular stop,-6.879002,39.16503,0,,
MOMBASA-325,MOMBASA-325,Mombasa,Populated area,-6.876325,39.171353,0,,
MADAFU-944,MADAFU-944,Madafu,Regular stop,-6.874944,39.175308,0,,
MAGEREZA-409,MAGEREZA-409,Magereza,Regular stop,-6.874409,39.178973,0,,
BANANA-331,BANANA-331,Banana,Regular stop,-6.871331,39.189161,0,,
NJAPANDASEGEREA-136,NJAPANDASEGEREA-136,Nja panda segerea,Regular stop,-6.869136,39.193598,0,,
MAJUMBASITA-374,MAJUMBASITA-374,Majumba sita,Regular stop,-6.867374,39.19718,0,,
POSTA-786,POSTA-786,Posta,Regular stop,-6.865786,39.200514,0,,
AIRPORT-361,AIRPORT-361,Airport,Regular stop,-6.863361,39.205515,0,,
KIPAWA-942,KIPAWA-942,Kipawa,Regular stop,-6.858942,39.214941,0,,
SIDO-529,SIDO-529,Sido,Regular stop,-6.85529,39.222835,0,,
VINGUNGUTI-568,VINGUNGUTI-568,Vingunguti,Regular stop,-6.852568,39.228215,0,,
KARAKANA-804,KARAKANA-804,Karakana,Regular stop,-6.84804,39.23681,0,,
TAZARA-889,TAZARA-889,Tazara,Regular stop,-6.781313888888889,39.25277777777778,0,,
SOKONI-444,SOKONI-444,Sokoni,Regular stop,-6.850166944444444,39.28612,0,,
VETENARY-111,VETENARY-111,Vetenary,Regular stop,-6.865793611111111,39.25969222222222,0,,
USALAMA-222,USALAMA-222,Usalama,Regular stop,-6.855734722222222,39.26374111111111,0,,
HOSPITALTEMEKE-222,HOSPITALTEMEKE-222,Hospital temeke,Regular stop,-6.861427222222222,6.263127777777778,0,,
GEREZANI-479,GEREZANI-479,Gerezani,Major stop,-6.82479,39.273585,0,,
DARAJANI-665,DARAJANI-665,Darajani,small stop,-6.8302016666666665,39.27222916666667,0,,
MADUKAMAWILI-506,MADUKAMAWILI-506,Maduka mawili,regular stop,-6.84506,39.26791388888889,0,,
SERENGETI-189,SERENGETI-189,Serengeti,regular stop,-6.85189,39.266796666666664,0,,
USALAMA-999,USALAMA-999,Usalama,regular stop,-65.85387999999999,39.26403666666667,0,,
GEREJI-666,GEREJI-666,Gereji,small stop,-6.857146666666666,39.262393333333335,0,,
MWEMBEYANGA-565,MWEMBEYANGA-565,Mwembe Yanga,small stop,-6.858565,39.258345,0,,
MAGOROFANI-333,MAGOROFANI-333,Magorofani,small stop,-6.863828333333333,39.256753333333336,0,,
VITANDA-667,VITANDA-667,vitanda,small stop,-6.869161666666667,39.255876666666666,0,,
DEVISKONA-667,DEVISKONA-667,Devis kona,small stop,-6.870276666666667,39.25482,0,,
CHAMA-652,CHAMA-652,chama,regular stop,-6.87652,39.250371666666666,0,,
NJIAPANDAYAMWINYI-667,NJIAPANDAYAMWINYI-667,Njia panda ya mwinyi,regular stop,-6.878626666666667,39.24875166666667,0,,
ABIOLA-666,ABIOLA-666,Abiola,regular stop,-6.884751666666666,39.24310666666667,0,,
KWAMAMAKIBONGE-333,KWAMAMAKIBONGE-333,kwa mama kibonge,regular stop,-6.889518333333333,39.241805,0,,
KWALULENGE-666,KWALULENGE-666,kwa lulenge,regular stop,-6.892241666666666,39.236088333333335,0,,
KANISANI-241,KANISANI-241,Kanisani,Major stop,-6.89241,39.227225000000004,0,,
SSOKONI-896,SSOKONI-896,S/sokoni,Small bus stop,-6.88972896,39.21973967,0,,
MNARANI-811,MNARANI-811,Mnarani,Small bus stop,-6.88739811,39.22093713,0,,
KWAJIMY-055,KWAJIMY-055,Kwa jimy,Small bus stop,-6.88771055,39.22175241,0,,
MWISHOWARAMI-805,MWISHOWARAMI-805,Mwisho wa rami,Small bus stop,-6.88025805,39.22820537,0,,
MWANGA-907,MWANGA-907,Mwanga,Small bus stop,-6.87840907,39.22666555,0,,
RUMOR-109,RUMOR-109,Rumor,Small bus stop,-6.87645109,39.22522304,0,,
RELIN-076,RELIN-076,Relin,Small bus stop,-6.8707076,39.22313804,0,,
KWADUBE-449,KWADUBE-449,Kwa dube,Small bus stop,-6.86147449,39.22196232,0,,
VINGUNGUTI-793,VINGUNGUTI-793,Vingunguti,Small bus stop,-6.85256793,39.22823335,0,,
BAKHRESA-968,BAKHRESA-968,Bakhresa,Small bus stop,-6.84212968,39.24510095,0,,
BUGURUNIROZANA-189,BUGURUNIROZANA-189,Buguruni rozana,Large bus stop,-6.83351189,39.24735182,0,,
BUNGONI-745,BUNGONI-745,Bungoni,Small bus stop,-6.8284745,39.25653571,0,,
AMANA-115,AMANA-115,Amana,Small bus stop,-6.82793115,39.25852051,0,,
ILALASOKONI-684,ILALASOKONI-684,Ilala sokoni,Small bus stop,-6.82674684,39.26321988,0,,
CONGOKKOO-998,CONGOKKOO-998,Congo kkoo,Small bus stop,-6.8234998,39.27425086,0,,
MMOJA-585,MMOJA-585,Mmoja,Large bus stop,-6.82149585,39.28014792,0,,
SIMU2000-125,SIMU2000-125,Simu 2000,Large bus stop,-6.788125,39.216546667,0,,
RIVERSIDE-333,RIVERSIDE-333,River side,Regular stop,-6.800673333,39.20676,0,,
MABIBOHOSTEL-111,MABIBOHOSTEL-111,Mabibo hostel,Regular stop,-6.803611111111111,39.20944444444445,0,,
UBUNGOEXTREMAL-775,UBUNGOEXTREMAL-775,Ubungo Extremal,Regular stop,-6.8052777777777775,39.21277777777778,0,,
MWANANCHI-775,MWANANCHI-775,Mwananchi,Regular stop,-6.8052777777777775,39.22083333333334,0,,
TRELINI-569,TRELINI-569,T/Relini,Regular stop,-6.82569,39.231208333,0,,
TSHULE-015,TSHULE-015,T/shule,Regular stop,-6.83015,39.227331667,0,,
TBIMA-667,TBIMA-667,T/Bima,Regular stop,-6.831381667,39.220475,0,,
MAGENGENI-333,MAGENGENI-333,Magengeni,Small stop,-6.834218333,39.217915,0,,
POSTA-667,POSTA-667,Posta,Regular stop,-6.836056667,39.21562,0,,
BARACUDA-422,BARACUDA-422,Baracuda,Regular stop,-6.8352422,39.2167163,0,,
SANENE-041,SANENE-041,Sanene,Regular stop,-6.8439041,39.2027892,0,,
SHELI-667,SHELI-667,Sheli,Small stop,-6.846326667,39.187228333,0,,
TSEGEREA-329,TSEGEREA-329,T/Segerea,Large bus stop,-6.84329,39.185786667,0,,
SIMU2000-325,SIMU2000-325,Simu 2000,Large bus stop,-6.78798325,39.21652819,0,,
RIVERSIDE-773,RIVERSIDE-773,River side,Small bus station,-6.80058773,39.20674781,0,,
HOSTEL-645,HOSTEL-645,Hostel,Small bus stop,-6.80395645,39.21057264,0,,
EXTERNAL-489,EXTERNAL-489,External,Small bus stop,-6.8058489,39.21355043,0,,
MWANANCHI-817,MWANANCHI-817,Mwananchi,Small bus stop,-6.81703817,39.22308856,0,,
TOT-891,TOT-891,Tot,Small bus stop,-6.81753891,39.22385231,0,,
TABATADAMPO-549,TABATADAMPO-549,Tabata dampo,Small bus stop,-6.82457549,39.23201818,0,,
MATUMBI-354,MATUMBI-354,Matumbi,Small bus stop,-6.82682354,39.23400287,0,,
BUGURUNI-555,BUGURUNI-555,Buguruni,Large bus stop,-6.83936555,39.2438717,0,,
TAZARA-001,TAZARA-001,Tazara,Small bus stop,-6.84470001,39.24485751,0,,
KALAKANA-963,KALAKANA-963,Kalakana,Small bus stop,-6.84779963,39.23758677,0,,
VINGUNGUTI-402,VINGUNGUTI-402,Vingunguti,Small bus stop,-6.85161402,39.23066139,0,,
AIRPORT-235,AIRPORT-235,Airport,Small bus stop,-6.86381235,39.20498101,0,,
MAJUMBA-556,MAJUMBA-556,Majumba,Small bus stop,-6.86547556,39.20135201,0,,
BANANA-386,BANANA-386,Banana,Large bus stop,-6.87240386,39.18737142,0,,
MOMBASA-077,MOMBASA-077,Mombasa,Large bus stop,-6.87687077,39.17058805,0,,
MDHAMBARAUNI-408,MDHAMBARAUNI-408,Mdhambarauni,Small bus stop,-6.87895408,39.16521503,0,,
KITUOKIPYA-301,KITUOKIPYA-301,Kituo kipya,Small bus station,-6.87977301,39.16164697,0,,
GMBOTO-735,GMBOTO-735,G/mboto,Large bus stop,-6.88154735,39.15805477,0,,
SIMU2000-378,SIMU2000-378,Simu 2000,Large bus stop,-6.78798378,39.21653553,0,,
HOSTEL-848,HOSTEL-848,Hostel,Small bus stop,-6.80401848,39.21071155,0,,
EXTENAL-903,EXTENAL-903,Extenal,Small  bus stop,-6.8059903,39.21362511,0,,
GARAGE-666,GARAGE-666,Garage,Small bus stop,-6.8113666,39.21681591,0,,
MWANANCHI-327,MWANANCHI-327,Mwananchi,Small bus stop,-6.81652327,39.22234583,0,,
TOT-231,TOT-231,Tot,Small bus stop,-6.81810231,39.22472191,0,,
BUGURUNI-518,BUGURUNI-518,Buguruni,Large bus stop,-6.839518,39.24397125,0,,
TAZARAPOLICE-775,TAZARAPOLICE-775,Tazara police,Small bus stop,-6.84845775,39.23645838,0,,
VINGUNGUTI-708,VINGUNGUTI-708,Vingunguti,Small  bus stop,-6.85240708,39.22917354,0,,
KIPAWA-846,KIPAWA-846,Kipawa,Small bus stop,-6.85987846,39.21327921,0,,
AIRPORT-899,AIRPORT-899,Airport,Small bus stop,-6.86379899,39.20501355,0,,
NJIAPANDASEGEREA-468,NJIAPANDASEGEREA-468,Njia panda segerea,Small bus stop,-6.868468,39.19523671,0,,
BANANA-941,BANANA-941,Banana,Large bus stop,-6.87249941,39.18731418,0,,
MAGEREZA-791,MAGEREZA-791,Magereza,Small bus stop,-6.87465791,39.17764708,0,,
MADAFU-815,MADAFU-815,Madafu,Small bus stop,-6.87486815,39.17649796,0,,
MOMBASA-797,MOMBASA-797,Mombasa,Small bus stop,-6.87635797,39.17160949,0,,
GONGOLAMBOTO-026,GONGOLAMBOTO-026,Gongo lamboto,Large bus stop,-6.88123026,39.15889357,0,,
JESHINI-329,JESHINI-329,Jeshini,Small bus stop,-6.88597329,39.14730171,0,,
PUGUSHULE-663,PUGUSHULE-663,Pugu shule,Small bus stop,-6.89498663,39.13758326,0,,
SHULEMSINGI-469,SHULEMSINGI-469,Shule msingi,Small bus stop,-6.90006469,39.1248905,0,,
NJIAPANDA-996,NJIAPANDA-996,Njia panda,Small bus stop,-6.90058996,39.12219286,0,,
-502,-502,,Small bus stop,-6.91101502,39.12115765,0,,
KGSOKONI-473,KGSOKONI-473,Kg/sokoni,Small bus stop,-6.91285473,39.12132129,0,,
SIMU2000-472,SIMU2000-472,Simu 2000,Regular stop,-6.78846472,39.21631459,0,,
RIVERSIDE-443,RIVERSIDE-443,River side,Regular stop,-6.80012443,39.20665074,0,,
HOSTEL-142,HOSTEL-142,Hostel,Regular stop,-6.80404142,39.21064364,0,,
GARAGE-707,GARAGE-707,Garage,Regular stop,-6.81209707,39.21688565,0,,
MWANANCHI-397,MWANANCHI-397,Mwananchi,Regular stop,-6.81644397,39.22214292,0,,
TOT-131,TOT-131,Tot,Regular stop,-6.8213131,39.22833666,0,,
TABATA-054,TABATA-054,Tabata,Regular stop,-6.82492054,39.23203102,0,,
MATUMBI-279,MATUMBI-279,Matumbi,Heavy traffic,-6.82697279,39.2340935,0,,
ROZANABUGURUNI-163,ROZANABUGURUNI-163,Rozana buguruni,Regular stop,-6.83379163,39.24711328,0,,
BUNGONI-941,BUNGONI-941,Bungoni,Regular stop,-6.82857941,39.25626688,0,,
AMANA-499,AMANA-499,Amana,Regular stop,-6.82810499,39.25851232,0,,
BOMA-119,BOMA-119,Boma,Regular stop,-6.82672119,39.26359223,0,,
KARUME-694,KARUME-694,Karume,Regular stop,-6.82585694,39.26621817,0,,
CONGOKKOO-534,CONGOKKOO-534,Congo kkoo,Regular stop,-6.82469534,39.27452932,0,,
MMAZIMMOJA-164,MMAZIMMOJA-164,Mmazimmoja,Regular stop,-6.82117164,39.28065868,0,,
SIMU2000-974,SIMU2000-974,Simu/2000,Large bus stop,-6.78803974,39.21654418,0,,
NJIAPANDAYACHUO-993,NJIAPANDAYACHUO-993,Njia panda ya chuo,Small bus stop,-6.78865993,39.20898521,0,,
RIVERSIDE-262,RIVERSIDE-262,River side,Small bus stop,-6.80021262,39.20660948,0,,
MWANANCHI-766,MWANANCHI-766,Mwananchi,Small bus stop,-6.81631766,39.22199502,0,,
TABATADAMPO-508,TABATADAMPO-508,Tabata dampo,Small bus stop,-6.82477508,39.23190179,0,,
MATUMBI-173,MATUMBI-173,Matumbi,Small bus stop,-6.82641173,39.23360359,0,,
BUGURUNICHAMA-884,BUGURUNICHAMA-884,Buguruni chama,Small bus stop,-6.83916884,39.24370919,0,,
TAZARA-034,TAZARA-034,Tazara,Small bus stop,-6.84474034,39.2446163,0,,
KALAKANA-942,KALAKANA-942,Kalakana,Small bus stop,-6.84648942,39.24023224,0,,
VINGUNGUTI-101,VINGUNGUTI-101,Vingunguti,Small bus stop,-6.85196101,39.22989118,0,,
NJIAPANDASEGEREA-155,NJIAPANDASEGEREA-155,Njia panda segerea,Small bus stop,-6.8684155,39.19527778,0,,
BANANA-414,BANANA-414,Banana,Large bus stop,-6.87122414,39.18941226,0,,
MADAFU-981,MADAFU-981,Madafu,Small bus stop,-6.87525981,39.17481211,0,,
MOMBASA-755,MOMBASA-755,Mombasa,Large bus stop,-6.87629755,39.17158878,0,,
MZAMBARAUNI-535,MZAMBARAUNI-535,Mzambarauni,Small bus stop,-6.87925535,39.16469449,0,,
KITUOKIPYA-402,KITUOKIPYA-402,Kituo kipya,Small bus stop,-6.88004402,39.16064401,0,,
GMBOTO-113,GMBOTO-113,G/mboto,The route end at gongolamboto,-6.88016113,39.16044567,0,,
TCHANG'OMBE-503,TCHANG'OMBE-503,T/Chang'ombe,Major stop,-6.836338503,39.205784341,0,,
MWEMBENI-334,MWEMBENI-334,Mwembeni,Small,-6.837386334,39.206913235,0,,
BARACUDA-078,BARACUDA-078,Baracuda,Major stop,-6.841924078,39.211087146,0,,
MASANJA-052,MASANJA-052,Masanja,Small stop,-6.843830052,39.21818244,0,,
DARAJANI-923,DARAJANI-923,Darajani,Small stop,-6.84339923,39.220556155,0,,
KONA-013,KONA-013,Kona,Regular stop,-6.845335013,39.224944896,0,,
SIMBA-359,SIMBA-359,Simba,Small stop,-6.843445359,39.23041761,0,,
KIDARAJANI-137,KIDARAJANI-137,Kidarajani,Small stop,-6.84095137,39.237060123,0,,
RELINI-541,RELINI-541,Relini,Regular stop,-6.839728541,39.238778118,0,,
SHELI-403,SHELI-403,Sheli,Regular stop,-6.83837403,39.242763964,0,,
ROZANA-209,ROZANA-209,Rozana,Major stop,-6.833488209,39.247204997,0,,
MALAPA-048,MALAPA-048,Malapa,Regular stop,-6.829741048,39.251536946,0,,
BONGONI-038,BONGONI-038,Bongoni,Regular stop,-6.828517038,39.256150825,0,,
AMANA-663,AMANA-663,Amana,Regular stop,-6.827969663,39.258405459,0,,
SOKONI-537,SOKONI-537,Sokoni,Regular stop,-6.827826537,39.25896115,0,,
NJIAPANDAKIGOGOROUNDABOUT-402,NJIAPANDAKIGOGOROUNDABOUT-402,Njia panda Kigogo/Round about,Regular stop,-6.816126402,39.254232957,0,,
MAGOMENIMIKUMI-275,MAGOMENIMIKUMI-275,Magomeni mikumi,Regular stop,-6.809564275,39.256157851,0,,
MAGOMENIKANISANI-967,MAGOMENIKANISANI-967,Magomeni Kanisani,Regular stop,-6.804659967,39.259300204,0,,
MKWAJUNI-174,MKWAJUNI-174,Mkwajuni,Regular stop,-6.796577174,39.263753253,0,,
STUDIO-305,STUDIO-305,Studio,Regular stop,-6.79285305,39.264213944,0,,
KINONDONIMANYANYA-747,KINONDONIMANYANYA-747,Kinondoni Manyanya,Regular stop,-6.789782747,39.263497967,0,,
BIAFRA-933,BIAFRA-933,Biafra,Regular stop,-6.781834933,39.263616848,0,,
MORROCOTERMINAL-159,MORROCOTERMINAL-159,Morroco Terminal,Large bus stand,-6.7784159,39.263544194,0,,
CHAMA-726,CHAMA-726,Chama,Regular stop,-6.769032726,39.262759124,0,,
KISIWA-751,KISIWA-751,Kisiwa,Regular stop,-6.766158751,39.259972781,0,,
WARIOBA-748,WARIOBA-748,Warioba,Regular stop,-6.756638748,39.248071374,0,,
CLOUDS-074,CLOUDS-074,Clouds,Regular stop,-6.7483074,39.2404123,0,,
LUGALO-074,LUGALO-074,Lugalo,Regular stop,-6.7483074,39.2404123,0,,
KAWE-073,KAWE-073,Kawe,Large stand,-6.73863073,39.22893483,0,,
TCHANG'OMBE-333,TCHANG'OMBE-333,T/chang'ombe,Start of route. A regular stop.,-6.836283333,39.205785,0,,
BARAKUDA-935,BARAKUDA-935,Barakuda,Regular stop,-6.841935,39.211075,0,,
MSEWE-667,MSEWE-667,Msewe,Regular stop,-6.843831667,39.21831,0,,
KWASIMBA-667,KWASIMBA-667,Kwa simba,Regular stop,-6.843301667,39.232273333,0,,
BUGURUNI-475,BUGURUNI-475,Buguruni,Regular stop,-6.838475,39.24294,0,,
MALAPA-845,MALAPA-845,Malapa,Regular stop,-6.829845,39.251646667,0,,
BOMA-667,BOMA-667,Boma,Regular stop,-6.825831667,39.26499,0,,
MAGOMENIHOSPITALI-657,MAGOMENIHOSPITALI-657,Magomeni hospitali,Regular stop,-6.80657,39.257933333,0,,
MKWAJUNI-667,MKWAJUNI-667,Mkwajuni,Regular stop,-6.796701667,39.263721667,0,,
BIAFRA-435,BIAFRA-435,Biafra,Regular stop,-6.782435,39.26361,0,,
MOROCCO-667,MOROCCO-667,Morocco,Regular stop,-6.778321667,39.263543333,0,,
UBALOZI-333,UBALOZI-333,Ubalozi,Regular stop,-6.772868333,39.264311667,0,,
NAMANGA-663,NAMANGA-663,Namanga,Regular stop,-6.77663,39.27034,0,,
MACHO-785,MACHO-785,Macho,Regular stop,-6.767785,39.269251667,0,,
CHOLE-333,CHOLE-333,Chole,Regular stop,-6.757153333,39.276026667,0,,
MASAKIMWISHO-333,MASAKIMWISHO-333,Masaki mwisho,End of route.  A regular stop.,-6.741363333,39.279885,0,,
TCHANGOMBE-667,TCHANGOMBE-667,T/Changombe,Major stop,-6.836466667,39.205973333,0,,
BARACUDA-667,BARACUDA-667,Baracuda,Major stop,-6.841971667,39.211155,0,,
HOSPITAL-667,HOSPITAL-667,Hospital,Regular stop,-6.843976667,39.217538333,0,,
DARAJANI-667,DARAJANI-667,Darajani,Regular stop,-6.843251667,39.22088,0,,
MACHINJIONI-667,MACHINJIONI-667,Machinjioni,Regular stop,-6.843766667,39.224006667,0,,
PEREPERA-349,PEREPERA-349,Perepera,Regular stop,-6.84349,39.229783333,0,,
SIMBA-333,SIMBA-333,Simba,Regular stop,-6.843268333,39.232501667,0,,
CHAMA-946,CHAMA-946,Chama,Majo stop,-6.83946,39.244,0,,
TAZARA-333,TAZARA-333,Tazara,Regular stop,-6.845348333,39.246735,0,,
SOKONI-667,SOKONI-667,Sokoni,Regular stop,-6.847866667,39.248776667,0,,
VETENARI-979,VETENARI-979,Vetenari,Regular stop,-6.84979,39.252418333,0,,
NMC-333,NMC-333,Nmc,Regular stop,-6.850688333,39.262101667,0,,
USALAMA-445,USALAMA-445,Usalama,Regular stop,-6.854445,39.263953333,0,,
TEMEKEHOSPITAL-333,TEMEKEHOSPITAL-333,Temeke Hospital,Regular stop,-6.860513333,39.263373333,0,,
SUDANI-667,SUDANI-667,Sudani,Regular stop,-6.863796667,39.264216667,0,,
PIRE-667,PIRE-667,Pire,Small stop,-6.866031667,39.2701,0,,
AZIZIALI-455,AZIZIALI-455,Azizi Ali,Regular stop,-6.868455,39.274928333,0,,
MTONGANI-333,MTONGANI-333,Mtongani,Regular stop,-6.874523333,39.271793333,0,,
MISSIONI-667,MISSIONI-667,Missioni,Regular stop,-6.890336667,39.26899,0,,
SABASABA-522,SABASABA-522,Sabasaba,Regular stop,-6.89522,39.2678,0,,
KIZUIANI-448,KIZUIANI-448,Kizuiani,Regular stop,-6.90448,39.26958,0,,
ZAKEMU-667,ZAKEMU-667,Zakemu,Regular stop,-6.911976667,39.270206667,0,,
MBAGALARANGI3-165,MBAGALARANGI3-165,Mbagala Rangi 3,Large bus stop,-6.917165,39.269818333,0,,
TCHANGOMBE-189,TCHANGOMBE-189,T/Changombe,Large stand,-6.836337189,39.205532507,0,,
KILIMANJARO-236,KILIMANJARO-236,Kilimanjaro,Small stop,-6.839111236,39.208558822,0,,
BARAKUDA-439,BARAKUDA-439,Barakuda,Major stop,-6.841818439,39.211036684,0,,
KWAMASANJA-879,KWAMASANJA-879,Kwa Masanja,Small stop,-6.844372879,39.215254067,0,,
MSIKITINI-209,MSIKITINI-209,Msikitini,Normal stop,-6.843830209,39.218160914,0,,
DARAJANI-929,DARAJANI-929,Darajani,Small stop,-6.84369929,39.219377816,0,,
MACHINJIONI-642,MACHINJIONI-642,Machinjioni,Small stop,-6.843347642,39.221374588,0,,
KONA-502,KONA-502,Kona,Small stand,-6.8456502,39.2252359,0,,
PERAPERA-325,PERAPERA-325,Perapera,Small stop,-6.843470325,39.229936146,0,,
SIMBA-847,SIMBA-847,Simba,Normal stop,-6.84286847,39.233589416,0,,
DARAJANI-738,DARAJANI-738,Darajani,Small stand,-6.842545738,39.234501982,0,,
BUGURUNISHELI-733,BUGURUNISHELI-733,Buguruni sheli,Regular stand,-6.838507733,39.243004432,0,,
ROZANA-189,ROZANA-189,Rozana,Major stop,-6.835115189,39.246186376,0,,
MALAPA-322,MALAPA-322,Malapa,Regular,-6.829697322,39.25125635,0,,
BONGONI-046,BONGONI-046,Bongoni,Regular,-6.828493046,39.256219184,0,,
AMANA-582,AMANA-582,Amana,Regular,-6.828354582,39.256846706,0,,
BOMASOKONI-081,BOMASOKONI-081,Boma sokoni,Large stand,-6.826657081,39.263407454,0,,
KARUME-771,KARUME-771,Karume,Large stand,-6.82582771,39.266200823,0,,
KONGOKARIAKOO-916,KONGOKARIAKOO-916,Kongo Kariakoo,Major stop,-6.82362916,39.273998599,0,,
MNAZIMMOJA-718,MNAZIMMOJA-718,Mnazi Mmoja,Final destination of the route/large stand,-6.821276718,39.280654771,0,,
TCHANGOMBE-359,TCHANGOMBE-359,T/Changombe,Large stand,-6.836445359,39.205800505,0,,
MWEMBENI-998,MWEMBENI-998,Mwembeni,Small stop,-6.837377998,39.206907831,0,,
BARAKUDA-848,BARAKUDA-848,Barakuda,Major stop,-6.842086848,39.211127915,0,,
DARAJANI-802,DARAJANI-802,Darajani,Small stop,-6.843375802,39.220547453,0,,
KONA-876,KONA-876,Kona,Regular stop,-6.843604876,39.223269358,0,,
MACHINJIONI-566,MACHINJIONI-566,Machinjioni,"A lot of movement,-6.84566,39.2252286,0,,
VINGNGUTI-599,VINGNGUTI-599,Vingnguti,Regular stop,-6.85170599,39.230288891,0,,
SIDO-239,SIDO-239,Sido,Normal stop,-6.855697239,39.22246374,0,,
UWANJAWANDEGE-717,UWANJAWANDEGE-717,Uwanja wa ndege,Regular stop,-6.86380717,39.205063728,0,,
POSTA-767,POSTA-767,Posta,Small stop,-6.865492767,39.201329183,0,,
MAJUMBASITA-584,MAJUMBASITA-584,Majumba sita,Regular stop,-6.866878584,39.198406802,0,,
NJIAPANDAYASEGEREA-295,NJIAPANDAYASEGEREA-295,Njia Panda ya segerea,Normal stop,-6.868466295,39.195231317,0,,
BANANA-188,BANANA-188,Banana,Regular stop,-6.872471188,39.187301914,0,,
MAGEREZA-967,MAGEREZA-967,Magereza,Small stop,-6.874634967,39.178094303,0,,
MADAFU-556,MADAFU-556,Madafu,Small stop,-6.874709556,39.177412722,0,,
MOMBASA-643,MOMBASA-643,Mombasa,A lot of activities taking place,-6.876692643,39.170834833,0,,
MZAMBARAUNI-877,MZAMBARAUNI-877,Mzambarauni,Small stop,-6.879299877,39.164607198,0,,
KITUOKIPYA-964,KITUOKIPYA-964,Kituo kipya,Small stop,-6.879682964,39.163187871,0,,
GONGOLAMBOTO-416,GONGOLAMBOTO-416,Gongo la mboto,A lot of activities taking place/ large stand,-6.881327416,39.158712008,0,,
MALIASILI-512,MALIASILI-512,Maliasili,Small stop,-6.884051512,39.152902151,0,,
MWISHOWALAMI-215,MWISHOWALAMI-215,Mwisho wa lami,Small stop,-6.887036215,39.144533434,0,,
BAKIDADI-397,BAKIDADI-397,Bakidadi,Small stop,-6.891093397,39.139043329,0,,
SECONDARY-594,SECONDARY-594,Secondary,Normal stop,-6.894061594,39.13837754,0,,
SHULEYAMSINGI-266,SHULEYAMSINGI-266,Shule ya msingi,Regular stop,-6.90005266,39.12488516,0,,
KONA-566,KONA-566,Kona,Normal stop,-6.900196566,39.123875035,0,,
KWALAISI-994,KWALAISI-994,Kwa laisi,Small stop,-6.908579994,39.120366397,0,,
KIGOGO-706,KIGOGO-706,Kigogo,Normal stop,-6.915277706,39.122835091,0,,
KWAMUSTAPHA-989,KWAMUSTAPHA-989,Kwa Mustapha,Small stop,-6.920297989,39.124944044,0,,
DAMPO-526,DAMPO-526,Dampo,Normal stop,-6.925824526,39.122567207,0,,
KINYAMWEZI-999,KINYAMWEZI-999,Kinyamwezi,Small stop,-6.929730999,39.120617507,0,,
KIPAWAKWANDEVU-074,KIPAWAKWANDEVU-074,Kipawa/Kwa ndevu,Normal stop,-6.938156074,39.115365231,0,,
KWAMBIKI-289,KWAMBIKI-289,Kwa Mbiki,Small stop,-6.941736289,39.112259182,0,,
ZOOO-088,ZOOO-088,Zooo,Small stop,-6.94411088,39.110196672,0,,
CHIKILA-278,CHIKILA-278,Chikila,Small stop,-6.947341278,39.107545132,0,,
SHERATONI-719,SHERATONI-719,Sheratoni,Smalll stop,-6.951693719,39.104339324,0,,
MAZINDA-174,MAZINDA-174,Mazinda,Small stop,-6.957257174,39.100076958,0,,
TALIANI-991,TALIANI-991,Taliani,Small stop,-6.966419991,39.098047114,0,,
GEBUU-887,GEBUU-887,Gebuu,Small stop,-6.966967887,39.09790915,0,,
NGUVUKAZI-094,NGUVUKAZI-094,Nguvu kazi,Small stop,-6.980615094,39.093002115,0,,
MAGENGE-825,MAGENGE-825,Magenge,Small stop,-6.985033825,39.090568934,0,,
MASATURA-069,MASATURA-069,Masatura,Small stop,-6.98613069,39.08999137,0,,
KWANGWALE-094,KWANGWALE-094,Kwangwale,Small stop,-6.995392094,39.085363215,0,,
ZINGSOKONI-541,ZINGSOKONI-541,Zing Sokoni,"Final destination of the route,-6.996070541,39.084994386,0,,
KIMANGAMWISHO-333,KIMANGAMWISHO-333,Kimanga Mwisho,Large stand,-6.827588333,39.203016667,0,,
CHAMA-895,CHAMA-895,Chama,Small stop,-6.825895,39.208008333,0,,
MAWENZI-735,MAWENZI-735,Mawenzi,Small stop,-6.82735,39.211541667,0,,
SAVANA-399,SAVANA-399,Savana,Small stop,-6.8268399,39.2127658,0,,
CHAMA-333,CHAMA-333,Chama,Small stop,-6.828938333,39.21902,0,,
BIMA-085,BIMA-085,Bima,Regular stop,-6.83085,39.220943333,0,,
SHULE-667,SHULE-667,Shule,Regular stop,-6.829951667,39.226571667,0,,
AROMA-975,AROMA-975,Aroma,Major stop,-6.828975,39.23079,0,,
TABATARELINI-333,TABATARELINI-333,Tabata Relini,Small stop,-6.824738333,39.231981667,0,,
MATUMBI-333,MATUMBI-333,Matumbi,Small stop,-6.826543333,39.233718333,0,,
MUZA-165,MUZA-165,Muza,Small stop,-6.832165,39.23926,0,,
BUGURUNISHELI-667,BUGURUNISHELI-667,Buguruni sheli,Regular stop,-6.837931667,39.244181667,0,,
BUNGONI-667,BUNGONI-667,Bungoni,Small stop,-6.828426667,39.256248333,0,,
AMANA-667,AMANA-667,Amana,Small stop,-6.827896667,39.258586667,0,,
BOMASOKONI-667,BOMASOKONI-667,Boma sokoni,Regular stop,-6.826661667,39.263328333,0,,
KARUME-621,KARUME-621,Karume,Regular stop,-6.82621,39.265093333,0,,
KONGOKARIAKOO-397,KONGOKARIAKOO-397,Kongo Kariakoo,Regular stop,-6.8232397,39.274855,0,,
MNAZIMMOJA-667,MNAZIMMOJA-667,Mnazi Mmoja,Large stand,-6.822501667,39.281195,0,,
TKIMANGA-364,TKIMANGA-364,T/Kimanga,Large stop,-6.827668364,39.203123988,0,,
NJIAPANDA-257,NJIAPANDA-257,Njia Panda,Small stop,-6.825963257,39.207847288,0,,
MAWENZI-541,MAWENZI-541,Mawenzi,Small stop,-6.826572541,39.209853347,0,,
SHIBA-053,SHIBA-053,Shiba,Small stop,-6.826642053,39.213442404,0,,
DUKANI-433,DUKANI-433,Dukani,Small stop,-6.828694433,39.218699916,0,,
BIMA-928,BIMA-928,Bima,Major stop,-6.8306928,39.220708846,0,,
TSHULE-191,TSHULE-191,T/shule,Major stop,-6.829968191,39.226569629,0,,
AROMA-615,AROMA-615,Aroma,Regular stop,-6.8290615,39.230643656,0,,
TRELINI-889,TRELINI-889,T/relini,Small stop,-6.824252889,39.231121016,0,,
TOT-417,TOT-417,TOT,Small stop,-6.823010417,39.230030328,0,,
MWANACHI-051,MWANACHI-051,Mwanachi,Regular stop,-6.815902051,39.221054811,0,,
GARAGE-928,GARAGE-928,Garage,Smal stop,-6.811220928,39.216357846,0,,
EXTERNAL-283,EXTERNAL-283,External,Regular stop,-6.805496283,39.212784404,0,,
MABIBOHOSTEL-186,MABIBOHOSTEL-186,Mabibo Hostel,Small stop,-6.803653186,39.209714454,0,,
RIVERSIDE-701,RIVERSIDE-701,River side,Major stop,-6.800288701,39.206531627,0,,
NJIAPANDA-329,NJIAPANDA-329,Njia Panda,Regular stop,-6.790044329,39.208535527,0,,
SIMU2000-661,SIMU2000-661,Simu 2000,Large stand/destination of the route,-6.787889661,39.216410561,0,,
TABATAKIMANGASTAND-276,TABATAKIMANGASTAND-276,Tabata Kimanga stand,Major stop,-6.8276,39.203215,0,,
JIANDAE-667,JIANDAE-667,Jiandae,Small stop,-6.825931667,39.206078333,0,,
NJIAPANDAYADONI-667,NJIAPANDAYADONI-667,Njiapanda ya doni,Small stop,-6.825916667,39.207981667,0,,
SHIBA-667,SHIBA-667,Shiba,Small stop,-6.825831667,39.209606667,0,,
MAWENZI-333,MAWENZI-333,Mawenzi,Regular stop,-6.827358333,39.21136,0,,
SAVANA-355,SAVANA-355,Savana,Small stop,-6.826355,39.213771667,0,,
CHAMA-672,CHAMA-672,Chama,Regular stop,-6.82672,39.21542,0,,
KEMPU-667,KEMPU-667,Kempu,Small stop,-6.828596667,39.218518333,0,,
BIMA-667,BIMA-667,Bima,Regular stop,-6.830901667,39.221148333,0,,
MUSILIMU-333,MUSILIMU-333,Musilimu,Regular stop,-6.830238333,39.221851667,0,,
SHULE-999,SHULE-999,Shule,Regular stop,-6.82999,39.226506667,0,,
AROMA-875,AROMA-875,Aroma,Regular stop,-6.828875,39.230785,0,,
TABATARELINI-333,TABATARELINI-333,Tabata Relini,Regular stop,-6.824523333,39.231991667,0,,
MATUMBI-667,MATUMBI-667,Matumbi,Regular stop,-6.827096667,39.23443,0,,
KITUOKIPYA-667,KITUOKIPYA-667,Kituo kipya,Regular stop,-6.831311667,39.238433333,0,,
BUGURUNI-839,BUGURUNI-839,Buguruni,Regular stop,-6.83839,39.243436667,0,,
TAZARA-667,TAZARA-667,Tazara,Regular stop,-6.845596667,39.246858333,0,,
VETENALI-333,VETENALI-333,Vetenali,Regular stop,-6.849778333,39.252163333,0,,
USALAMA-333,USALAMA-333,Usalama,Regular stop,-6.855233333,39.26388,0,,
TEMEKEHOSPITAL-315,TEMEKEHOSPITAL-315,Temeke Hospital,Regular stop,-6.860315,39.263391667,0,,
TEMEKE-726,TEMEKE-726,Temeke,Major stop,-6.86726,39.261468333,0,,
KINYEREZI-693,KINYEREZI-693,Kinyerezi,Large bus stop,-6.84095693,39.14778598,0,,
KONA-851,KONA-851,Kona,Small bus stop,-6.84417851,39.15216119,0,,
SHULE-915,SHULE-915,Shule,Small bus stop,-6.84337915,39.15642925,0,,
KANISANI-096,KANISANI-096,Kanisani,Small bus stop,-6.84378096,39.16911785,0,,
MAGEREZA-005,MAGEREZA-005,Magereza,Small bus stop,-6.84209005,39.18017711,0,,
SEGEREA-894,SEGEREA-894,Segerea,Large bus stop,-6.84262894,39.1852481,0,,
0ILCOM-357,0ILCOM-357,0il com,Small bus stop,-6.84501357,39.18661666,0,,
KWABIBI-013,KWABIBI-013,Kwa bibi,Small bus stop,-6.84459013,39.19115203,0,,
CHAMA-618,CHAMA-618,Chama,Small bus stop,-6.84526618,39.19423167,0,,
SANENE-046,SANENE-046,Sanene,Small bus stop,-6.84383046,39.20105469,0,,
DARAJANI-163,DARAJANI-163,Darajani,Small bus stop,-6.8426163,39.20925707,0,,
BARAKUDA-442,BARAKUDA-442,Barakuda,Small bus stop,-6.84217442,39.20979003,0,,
TANESCO-468,TANESCO-468,Tanesco,Small bus stop,-6.83802468,39.21430049,0,,
BIMA-916,BIMA-916,Bima,Small bus stop,-6.83073916,39.22101685,0,,
MUSLIM-578,MUSLIM-578,Muslim,Small bus stop,-6.82959578,39.22387445,0,,
SHULEJICA-645,SHULEJICA-645,Shule jica,Small bus stop,-6.82990645,39.2261228,0,,
AROMA-961,AROMA-961,Aroma,Small bus stop,-6.82838961,39.2318263,0,,
TABATADAMPO-343,TABATADAMPO-343,Tabata dampo,Small bus stop,-6.82468343,39.23183876,0,,
MATUMBI-962,MATUMBI-962,Matumbi,Small bus stop,-6.82709962,39.23427256,0,,
BUGURUNIMALAPA-536,BUGURUNIMALAPA-536,Buguruni malapa,Large bus stop,-6.82974536,39.25143204,0,,
AMANA-193,AMANA-193,Amana,Small bus stop,-6.82808193,39.25855229,0,,
ILALASOKONI-241,ILALASOKONI-241,Ilala  sokoni,Small bus stop,-6.82667241,39.26336203,0,,
KARUME-113,KARUME-113,Karume,Small bus stop,-6.82531113,39.26702945,0,,
MSIMBAZI-447,MSIMBAZI-447,Msimbazi,Small bus stop,-6.82118447,39.27283944,0,,
KONA-978,KONA-978,Kona,Small bus stop,-6.81659978,39.27432721,0,,
FIRE-274,FIRE-274,Fire,Small bus stop,-6.81516274,39.2737593,0,,
AZANIA-461,AZANIA-461,Azania,Small bus stop,-6.81093461,39.27401553,0,,
KONAMUHAS-451,KONAMUHAS-451,Kona muhas,Small bus stop,-6.81037451,39.2743046,0,,
MHIMBILI-391,MHIMBILI-391,Mhimbili,Large bus stop,-6.80610391,39.273855,0,,
TSEGEREA-436,TSEGEREA-436,T/Segerea,Large bus stand,-6.843110436,39.185693245,0,,
BIBI-576,BIBI-576,bibi,Small stop,-6.844554576,39.191034876,0,,
CHAMA-147,CHAMA-147,Chama,Small stop,-6.845294147,39.195333675,0,,
SANENE-773,SANENE-773,Sanene,Small stop,-6.843828773,39.201078928,0,,
DARAJANI-527,DARAJANI-527,Darajani,Small stop,-6.842695527,39.209180437,0,,
BARACUDA-264,BARACUDA-264,Baracuda,Major stop,-6.841191264,39.211268319,0,,
POSTA-372,POSTA-372,Posta,Regular stop,-6.838099372,39.214285947,0,,
MAGENGENI-418,MAGENGENI-418,Magengeni,Regular stop,-6.835633418,39.216102515,0,,
BIMA-835,BIMA-835,Bima,Major stop,-6.830814835,39.220971255,0,,
TSHULE-431,TSHULE-431,T/Shule,Major stop,-6.830026431,39.226732309,0,,
AROMA-193,AROMA-193,Aroma,Regular stop,-6.829136193,39.23057134,0,,
TABATARELI-228,TABATARELI-228,Tabata Reli,Regular,-6.824989228,39.231102412,0,,
TTOT-087,TTOT-087,T/TOT,Small stop,-6.819647087,39.226589976,0,,
MWANANCHI-877,MWANANCHI-877,Mwananchi,Major stop,-6.816371877,39.221761448,0,,
GARAGE-327,GARAGE-327,Garage,Regular stop,-6.811054327,39.216200131,0,,
EXTERNAL-556,EXTERNAL-556,External,Regular stop,-6.805548556,39.212785871,0,,
MABIBOHOSTEL-137,MABIBOHOSTEL-137,Mabibo Hostel,Regular stop,-6.803702137,39.209696278,0,,
RIVERSIDE-991,RIVERSIDE-991,River side,Major stop,-6.798849991,39.206388387,0,,
NJIAPANDACHUO-151,NJIAPANDACHUO-151,Njia Panda Chuo,Regular stop,-6.789000151,39.208631522,0,,
KIVULINI-053,KIVULINI-053,Kivulini,Regular stop,-6.776291053,39.219029053,0,,
MLIMANICITY-282,MLIMANICITY-282,Mlimani City,Major stop,-6.773512282,39.221096757,0,,
LUFUNGIRA-313,LUFUNGIRA-313,Lufungira,Regular stop,-6.769977313,39.22390237,0,,
MPAKANICENTER-605,MPAKANICENTER-605,Mpakani center,Major stop,-6.767759605,39.226243474,0,,
MWENGE-262,MWENGE-262,Mwenge,Major stop,-6.762732262,39.227535881,0,,
MAKONGO-842,MAKONGO-842,Makongo,Regular stop,-6.756963842,39.224417773,0,,
LUGALO-665,LUGALO-665,Lugalo,Regular stop,-6.752501665,39.222252091,0,,
AMANI-101,AMANI-101,Amani,Regular stop,-6.735922101,39.22274637,0,,
KANISANI-509,KANISANI-509,Kanisani,Regular stop,-6.737625509,39.227259699,0,,
KAWE-981,KAWE-981,Kawe,Large bus stand,-6.739611981,39.230313839,0,,
TSEGEREA-333,TSEGEREA-333,T/Segerea,Start of route. Large station.,-6.843388333,39.185733333,0,,
CHAMA-325,CHAMA-325,Chama,Regular stop,-6.845325,39.195443333,0,,
SALELE-667,SALELE-667,Salele,Regular stop,-6.843946667,39.200693333,0,,
BARAKUDA-333,BARAKUDA-333,Barakuda,Regular stop,-6.841093333,39.211483333,0,,
BIMA-667,BIMA-667,Bima,Regular stop,-6.830636667,39.22117,0,,
SHULE-333,SHULE-333,Shule,Regular stop,-6.829993333,39.2266,0,,
RELI-375,RELI-375,Reli,Regular stop,-6.825375,39.231011667,0,,
MATUMBI-667,MATUMBI-667,Matumbi,Regular stop,-6.827196667,39.234375,0,,
ROZANA-212,ROZANA-212,Rozana,Regular stop,-6.8334212,39.2471323,0,,
MALAPA-667,MALAPA-667,Malapa,Regular stop,-6.829716667,39.25164,0,,
AMANA-945,AMANA-945,Amana,Regular stop,-6.827945,39.25862,0,,
ILALASOKONI-665,ILALASOKONI-665,Ilala sokoni,Regular stop,-6.82665,39.262995,0,,
CHINAPLAZA-435,CHINAPLAZA-435,China plaza,Regular stop,-6.824435,39.270898333,0,,
CONGO-333,CONGO-333,Congo,Regular stop,-6.823553333,39.274156667,0,,
BAHKRESA-265,BAHKRESA-265,Bahkresa,Regular stop,-6.822265,39.277401667,0,,
MMMOJA-333,MMMOJA-333,M/mmoja,End of route. Regular stop.,-6.821268333,39.280348333,0,,
TSEGEREA-667,TSEGEREA-667,T/Segerea,Large station with different activities small business and shops.,-6.843241667,39.185721667,0,,
DAWASA-333,DAWASA-333,Dawasa,Regular stop,-6.845253333,39.19414,0,,
BARAKUDA-667,BARAKUDA-667,Barakuda,Regular stop,-6.842596667,39.209266667,0,,
POSTA-806,POSTA-806,Posta,Regular stop,-6.83806,39.214298333,0,,
BIMA-333,BIMA-333,Bima,Regular stop,-6.829758333,39.225053333,0,,
SHULE-976,SHULE-976,Shule,Regular stop,-6.82976,39.225121667,0,,
AROMA-975,AROMA-975,Aroma,Regular stop,-6.828975,39.230801667,0,,
RELI-667,RELI-667,Reli,Regular stop,-6.824291667,39.23129,0,,
TOT-667,TOT-667,TOT,Regular stop,-6.819826667,39.226886667,0,,
MWANANCHI-612,MWANANCHI-612,Mwananchi,Regular stop,-6.81612,39.221516667,0,,
GARAGE-138,GARAGE-138,Garage,Regular stop,-6.811138,39.2163102,0,,
RIVERSIDE-333,RIVERSIDE-333,River side,Regular stop,-6.798938333,39.206498333,0,,
NJIAPANDAYACHUO-667,NJIAPANDAYACHUO-667,Njia panda ya chuo,Regular stop,-6.789571667,39.208586667,0,,
MLIMANICITY-667,MLIMANICITY-667,Mlimani city,Regular stop,-6.778346667,39.217608333,0,,
LUFUNGIRA-333,LUFUNGIRA-333,Lufungira,Regular stop,-6.770183333,39.223805,0,,
MPAKANI-667,MPAKANI-667,Mpakani,Regular stop,-6.769996667,39.223925,0,,
BONDENI-667,BONDENI-667,Bondeni,Regular stop,-6.738396667,39.216938333,0,,
SHULE-333,SHULE-333,Shule,Regular stop,-6.727298333,39.214348333,0,,
GOIG-667,GOIG-667,Goig,Regular stop,-6.722491667,39.21287,0,,
AFRICANA-705,AFRICANA-705,Africana,Regular stop,-6.704705,39.207975,0,,
RAFIA-726,RAFIA-726,Rafia,Regular stop,-6.69726,39.206063333,0,,
MBUYUNI-333,MBUYUNI-333,Mbuyuni,Regular stop,-6.687173333,39.202725,0,,
JKT-194,JKT-194,JKT,Regular stop,-6.68194,39.198895,0,,
SCANSCA-667,SCANSCA-667,Scansca,Regular stop,-6.677111667,39.195475,0,,
KWANDEVU-894,KWANDEVU-894,Kwa ndevu,A major stop. A lot of businesses going on.,-6.66894,39.189908333,0,,
TNYUKI-667,TNYUKI-667,T nyuki,"Large station,-6.658406667,39.184195,0,,
TSEGEREA-TEMEKE-412,TSEGEREA-TEMEKE-412,T/Segerea - Temeke,Large stand,-6.843282412,39.185741896,0,,
CHAMA-719,CHAMA-719,Chama,Small stop,-6.845225719,39.194191364,0,,
SANANE-692,SANANE-692,Sanane,Small stop,-6.843903692,39.201141855,0,,
DARAJANI-498,DARAJANI-498,Darajani,Small stop,-6.842455498,39.209349125,0,,
BARAKUDA-835,BARAKUDA-835,Barakuda,Major stop,-6.84156835,39.210678346,0,,
POSTA-139,POSTA-139,Posta,Small stop,-6.837981139,39.214184591,0,,
MAGENGENI-381,MAGENGENI-381,Magengeni,Small stop,-6.837225381,39.21442401,0,,
BIMA-955,BIMA-955,Bima,Regular stop,-6.830930955,39.220856842,0,,
MUSLIMU-692,MUSLIMU-692,Muslimu,Small stop,-6.830399692,39.221341297,0,,
TBTSHULE-072,TBTSHULE-072,Tbt/shule,Small stop,-6.829886072,39.226311947,0,,
AROMA-842,AROMA-842,Aroma,Major stop,-6.829086842,39.23060268,0,,
TRELINI-334,TRELINI-334,T/relini,Small stop,-6.824820334,39.232147249,0,,
TMATUMBI-796,TMATUMBI-796,T/Matumbi,Small stop,-6.826656796,39.233908458,0,,
BUGURUNICHAMA-508,BUGURUNICHAMA-508,Buguruni chama,Major stop,-6.839585508,39.244116019,0,,
TAZARA-508,TAZARA-508,Tazara,Regular stop,-6.839585508,39.244116019,0,,
VETERINARY-294,VETERINARY-294,Veterinary,Smal stop,-6.8488294,39.2546012,0,,
USALAMA-501,USALAMA-501,Usalama,Small stop,-6.855589501,39.263852511,0,,
HOSPITALTEMEKE-755,HOSPITALTEMEKE-755,Hospital Temeke,Major stop,-6.860348755,39.263371041,0,,
SUDANI-378,SUDANI-378,Sudani,Small stop,-6.863783378,39.264313353,0,,
TEMEKETANDIKA-627,TEMEKETANDIKA-627,Temeke/Tandika,Large stand,-6.866963627,39.261713844,0,,
GEREZAN-401,GEREZAN-401,Gerezan,"Start of the route,-6.824401,39.2744745,0,,
DARAJANI-,DARAJANI-,Darajani,Regular stop,,,0,,
KEKO-333,KEKO-333,Keko,Regular stop,-6.840188333,39.272955,0,,
DDC-667,DDC-667,DDC,Small stop,-6.840851667,39.273208333,0,,
MADUKAMAWILI-333,MADUKAMAWILI-333,Maduka mawili,Regular stop,-6.844113333,39.26957,0,,
SERENGETI-895,SERENGETI-895,Serengeti,Regular stop,-6.851895,39.266738333,0,,
USALAMA-667,USALAMA-667,Usalama,Regular stop,-6.853681667,39.26512,0,,
HOSPITALI-595,HOSPITALI-595,Hospitali,Regular stop,-6.860595,39.263343333,0,,
TANDIKA-667,TANDIKA-667,Tandika,End of the route Major stop,-6.865751667,39.263035,0,,
SUDANI-524,SUDANI-524,Sudani,Regular stop,-6.863524,39.263352,0,,
TEMEKEHOSPITAL-104,TEMEKEHOSPITAL-104,Temeke hospital,"Major stop,-6.86104,39.263168,0,,
USALAMA-117,USALAMA-117,Usalama,Regular stop,-6.855117,39.263781,0,,
NMC-476,NMC-476,Nmc,Regular stop,-6.850476,39.26155,0,,
SOKOTA-054,SOKOTA-054,Sokota,Regular stop,-6.849054,39.259607,0,,
VETENARY-088,VETENARY-088,Vetenary,Regular stop,-6.850088,39.252389,0,,
SOKONI-034,SOKONI-034,Sokoni,Regular stop,-6.848034,39.248635,0,,
TAZARA-807,TAZARA-807,Tazara,Regular stop,-6.844807,39.244526,0,,
KARAKANA-486,KARAKANA-486,Karakana,Regular stop,-6.8486,39.236132,0,,
VINGUNGUTI-242,VINGUNGUTI-242,Vingunguti,Regular stop,-6.85242,39.229101,0,,
SIDO-676,SIDO-676,Sido,Regular stop,-6.855676,39.222541,0,,
KIPAWA-954,KIPAWA-954,Kipawa,Regular stop,-6.859954,39.213069,0,,
AIRPORT-976,AIRPORT-976,Airport,Regular stop,-6.863976,39.204816,0,,
POSTA-551,POSTA-551,Posta,Regular stop,-6.86551,39.201325,0,,
MAJUMBA6-883,MAJUMBA6-883,Majumba 6,Regular stop,-6.866883,39.198467,0,,
NJIAPANDASEGEREQ-549,NJIAPANDASEGEREQ-549,Njia panda segereq,Regular stop,-6.868549,39.195133,0,,
BANANA-476,BANANA-476,Banana,Regular stop,-6.872476,39.187314,0,,
MAGEREZA-634,MAGEREZA-634,Magereza,Regular stop,-6.874634,39.178121,0,,
MADAFU-145,MADAFU-145,Madafu,Regular stop,-6.875145,39.174828,0,,
MOMBASA-836,MOMBASA-836,Mombasa,Regular stop,-6.876836,39.170685,0,,
MZAMBARAUNI-284,MZAMBARAUNI-284,Mzambarauni,Regular stop,-6.879284,39.16464,0,,
KITUOKIPYA-377,KITUOKIPYA-377,Kituo kipya,Highly populated area,-6.880377,39.160287,0,,
GMBOTO-087,GMBOTO-087,Gmboto,Regular stop,-6.881087,39.159015,0,,
TEMEKETANDIKA-355,TEMEKETANDIKA-355,Temeke/ Tandika,"Major stop,-6.866355,39.262773333,0,,
SUDAN-667,SUDAN-667,Sudan,Regular stop,-6.863766667,39.264105,0,,
PILE-661,PILE-661,Pile,Regular stop,-6.8661,39.270128333,0,,
AZIZIALI-667,AZIZIALI-667,Azizi ali,Regular stop,-6.868296667,39.274903333,0,,
MTONGANI-,MTONGANI-,Mtongani,Regular stop,,,0,,
MSIKITINI-333,MSIKITINI-333,Msikitini,Small stop,-6.884738333,39.268605,0,,
NJIAPANDAYAMACHINJIO-667,NJIAPANDAYAMACHINJIO-667,Njia panda ya machinjio,Small stop,-6.896306667,39.270193333,0,,
MAGENGENI-667,MAGENGENI-667,Magengeni,Small stop,-6.895626667,39.279506667,0,,
NJIAYANG'OMBE-065,NJIAYANG'OMBE-065,Njia ya ng'ombe,Small stop,-6.897065,39.283526667,0,,
SHULE-333,SHULE-333,Shule,Small stop,-6.900848333,39.283963333,0,,
MBKUU-667,MBKUU-667,Mb/kuu,Major stop,-6.902946667,39.286426667,0,,
TEMEKE-445,TEMEKE-445,Temeke,Regular stop,-6.866991944444445,39.261633333333336,0,,
TEMEKEHOSPITAL-556,TEMEKEHOSPITAL-556,Temeke Hospital,Regular stop,-6.861268055555556,39.26316305555556,0,,
USALAMA-215,USALAMA-215,Usalama,Regular stop,-6.8508097222222215,39.263509444444445,0,,
ENMC-889,ENMC-889,ENMC,Regular stop,-6.850823888888889,39.26202527777778,0,,
SOKOTA-777,SOKOTA-777,Sokota,Regular stop,-6.850030277777777,39.260936111111114,0,,
VETENARY-995,VETENARY-995,vetenary,Regular stop,-6.8501199999999995,39.25251,0,,
BAKRESA-111,BAKRESA-111,Bakresa,Regular stop,-6.841918611111111,39.24504138888889,0,,
BUGURUNISHELI-445,BUGURUNISHELI-445,buguruni sheli,Regular stop,-6.839411944444445,39.24396111111111,0,,
MATUNGI-111,MATUNGI-111,matungi,Regular stop,-6.827161111111111,39.23439305555556,0,,
TABATA-111,TABATA-111,Tabata,Regular stop,-6.824361111111111,39.23133333333333,0,,
MWANANCHI-111,MWANANCHI-111,Mwananchi,Regular stop,-6.816111111111111,39.22119444444445,0,,
GEREJI-555,GEREJI-555,Gereji,Regular stop,-6.811055555555555,39.21613888888889,0,,
EXTENAL-666,EXTENAL-666,Extenal,Regular stop,-6.806916666666666,39.214305555555555,0,,
HOSTELI-775,HOSTELI-775,Hosteli,Regular stop,-6.8037777777777775,39.209694444444445,0,,
RIVERSIDE-555,RIVERSIDE-555,Riverside,Regular stop,-6.799555555555555,39.20641666666667,0,,
UBUNGOMAJI-555,UBUNGOMAJI-555,Ubungo maji,Regular stop,-6.799555555555555,39.20641666666667,0,,
ROMBO-995,ROMBO-995,Rombo,Regular stop,-6.7902499999999995,39.194694444444444,0,,
KIMARABUCHA-889,KIMARABUCHA-889,Kimara Bucha,Regular stop,-6.789138888888889,39.181444444444445,0,,
KOROGWE-778,KOROGWE-778,Korogwe,Regular stop,-6.787277777777778,39.17697222222222,0,,
KIMARASTOPOVERE-333,KIMARASTOPOVERE-333,Kimara stop over E,Regular stop,-6.787333333333333,39.157444444444444,0,,
TEMBONI-778,TEMBONI-778,Temboni,Regular stop,-6.790777777777778,39.138527777777774,0,,
MSUGULI-333,MSUGULI-333,Msuguli,Regular stop,-6.790333333333333,39.13194444444444,0,,
KIBANDAMKAA-222,KIBANDAMKAA-222,Kibanda mkaa,Regular stop,-6.783222222222222,39.12394444444445,0,,
MBEZI-111,MBEZI-111,Mbezi,Regular stop,-6.785611111111111,39.112972222222226,0,,
TEMEKETANDIKA-667,TEMEKETANDIKA-667,Temeke/Tandika,Major stop,-6.866221667,39.262691667,0,,
SUDAN-376,SUDAN-376,Sudan,Regular stop,-6.86376,39.264146667,0,,
AZIZALI-667,AZIZALI-667,Aziz Ali,Regular stop,-6.868036667,39.27503,0,,
MTONGANI-333,MTONGANI-333,Mtongani,Regular stop,-6.874378333,39.2718,0,,
MSIKITINI-333,MSIKITINI-333,Msikitini,Regular stop,-6.881008333,39.269341667,0,,
MISHENI-033,MISHENI-033,Misheni,Regular stop,-6.89033,39.269001667,0,,
SABASABA-667,SABASABA-667,Sabasaba,Regular stop,-6.895136667,39.267725,0,,
KIZUIANI-667,KIZUIANI-667,Kizuiani,Regular stop,-6.904466667,39.269578333,0,,
ZAKIEMU-667,ZAKIEMU-667,Zakiemu,Regular stop,-6.913286667,39.27034,0,,
RANGITATU-333,RANGITATU-333,Rangi tatu,Major stop,-6.916938333,39.270585,0,,
MZINGA-667,MZINGA-667,Mzinga,Regular stop,-6.942366667,39.278726667,0,,
KANISANI-934,KANISANI-934,Kanisani,Regular stop,-6.94934,39.281245,0,,
KONGOWE-667,KONGOWE-667,Kongowe,Regular stop,-6.954631667,39.283113333,0,,
KWAMAU-333,KWAMAU-333,Kwa mau,Regular stop,-6.948168333,39.288743333,0,,
GEORGE-333,GEORGE-333,George,Regular stop,-6.945948333,39.29253,0,,
KWAUSTAZI-667,KWAUSTAZI-667,Kwa ustazi,Regular stop,-6.943511667,39.296533333,0,,
SHELI-333,SHELI-333,Sheli,Regular stop,-6.942163333,39.302985,0,,
TOANGOMASTAND-667,TOANGOMASTAND-667,Toangoma stand,Major stop,-6.934391667,39.302341667,0,,
VIKINDU-335,VIKINDU-335,Vikindu,"Regular stop,-7.0056883333333335,39.30853833333333,0,,
STENDIYAMKOA-004,STENDIYAMKOA-004,stendi ya mkoa,Major stop,-6.9877650000000004,39.295674999999996,0,,
MWANDEGEYAPILI-334,MWANDEGEYAPILI-334,Mwandege ya pili,Regular stop,-6.977858333333334,39.289298333333335,0,,
KONGOWE-667,KONGOWE-667,kongowe,Regular stop,-6.954931666666667,39.28308,0,,
MZINGA-405,MZINGA-405,Mzinga,Regular stop,-6.942405,39.278735,0,,
NJIAPANDAYAMPONDA-667,NJIAPANDAYAMPONDA-667,Njiapanda ya mponda,Regular stop,-6.935441666666667,39.27291833333333,0,,
KOKOTO-334,KOKOTO-334,kokoto,Small stop,-6.929298333333334,39.27175,0,,
KANISANI-333,KANISANI-333,kanisani,Regular stop,-6.926043333333333,39.271226666666664,0,,
RANGITATU-334,RANGITATU-334,Rangi tatu,Major stop,-6.917273333333334,39.270273333333336,0,,
ZAKHEIM-001,ZAKHEIM-001,Zakheim,Regular sttop,-6.914630000000001,39.270131666666664,0,,
KIZUIANI-667,KIZUIANI-667,Kizuiani,Regular stop,-6.904691666666667,39.269435,0,,
KIPATI-007,KIPATI-007,Kipati,Small stop,-6.90007,39.26902833333333,0,,
SABASABA-635,SABASABA-635,Sabasaba,Regular stop,-6.896635,39.26801666666667,0,,
MISHENI-999,MISHENI-999,Misheni,Regular stop,-6.891349999999999,39.267916666666665,0,,
MSIKITINI-667,MSIKITINI-667,Msikitini,Small stop,-6.884816666666667,39.268295,0,,
MTONGANI-005,MTONGANI-005,Mtongani,Regular stop,-6.8746350000000005,39.271436666666666,0,,
AZIZIALI-835,AZIZIALI-835,Azizi Ali,Regular stop,-6.86835,39.27551833333333,0,,
TEMEKE-667,TEMEKE-667,Temeke,Major stop,-6.864781666666667,39.26631166666667,0,,
SUDAN-333,SUDAN-333,Sudan,Regular stop,-6.863758333333333,39.26385333333333,0,,
MAJARIBIO-915,MAJARIBIO-915,Majaribio,Small stop,-46.127915,,0,,
TANDIKA-334,TANDIKA-334,Tandika,Major stop end of the route,-6.868693333333334,39.263365,0,,
TANDIKA-555,TANDIKA-555,Tandika,busy start,-6.866378055555555,39.26229444444444,0,,
TEMEKEHOSPITAL-222,TEMEKEHOSPITAL-222,Temeke hospital,Regular stop,-6.861427222222222,39.263127777777775,0,,
USALAMA-222,USALAMA-222,usalama,Regular stop,-6.855734722222222,39.26374111111111,0,,
VETENARY-445,VETENARY-445,Vetenary,Regular stop,-6.8491269444444445,39.25969222222222,0,,
SOKONI-444,SOKONI-444,sokoni,Regular stop,-6.850166944444444,39.252786666666665,0,,
TAZARA-777,TAZARA-777,Tazara,Regular stop,-6.848457777777777,39.23645833333333,0,,
VINGUNGUTI-444,VINGUNGUTI-444,Vingunguti,Regular stop,-6.852406944444444,39.229173611111115,0,,
KIPAWA-333,KIPAWA-333,Kipawa,Regular stop,-6.859878333333333,39.213279166666666,0,,
UWANJAWANDEGE-889,UWANJAWANDEGE-889,Uwanja wa ndege,Regular stop,-6.863798888888889,39.20501361111111,0,,
NJIAPANDASEGEREA-556,NJIAPANDASEGEREA-556,Njia panda segerea,Regular stop,-6.868468055555556,39.195236666666666,0,,
BANANA-445,BANANA-445,Banana,Regular stop,-6.872499444444445,39.18731416666667,0,,
MAGEREZA-778,MAGEREZA-778,Magereza,Regular stop,-6.874657777777778,39.17764694444444,0,,
MADAFU-556,MADAFU-556,Madafu,Regular stop,-6.874868055555556,39.176498055555555,0,,
MOMBASA-556,MOMBASA-556,Mombasa,Regular stop,-6.876358055555556,39.17160944444444,0,,
GMBOTO-778,GMBOTO-778,G/mboto,Large station,-6.881230277777778,39.15889361111111,0,,
JESHINI-334,JESHINI-334,Jeshini,Regular stop,-65.88597333333334,39.147301666666664,0,,
PUGUSHULE-666,PUGUSHULE-666,Pugu shule,Regular stop,-6.894986666666666,39.13758333333333,0,,
SHULEMSINGI-223,SHULEMSINGI-223,shule msingi,Regular stop,-6.900064722222223,39.12489055555556,0,,
NJIAPANDA-059,NJIAPANDA-059,Njia panda,Regular stop,-6.90059,39.12219277777778,0,,
KGSOKONI-223,KGSOKONI-223,Kg/sokoni,Regular stop,-6.912854722222223,39.12132138888889,0,,
TANDIKA-575,TANDIKA-575,Tandika,Regular stop,-6.867575,39.261011667,0,,
DAVISKONA-667,DAVISKONA-667,Davis kona,Regular stop,-6.870316667,39.254866667,0,,
CHAMA-,CHAMA-,Chama,Failed to capture coordinates,,,0,,
NJIAPANDAYA-,NJIAPANDAYA-,Njiapanda ya,Failed to capture coordinates,,,0,,
ABIOLA-505,ABIOLA-505,Abiola,Regular stop,-6.884505,39.243126667,0,,
KWAMAMAKIBONGE-037,KWAMAMAKIBONGE-037,Kwa mama kibonge,Regular stop,-6.89037,39.241388333,0,,
LULENGE-667,LULENGE-667,Lulenge,Regular stop,-6.892291667,39.235963333,0,,
KANISANI-244,KANISANI-244,Kanisani,Regular stop,-6.89244,39.227196667,0,,
MUHIMBILI-667,MUHIMBILI-667,Muhimbili,Regular stop,-6.805981667,39.27368,0,,
FIRE-251,FIRE-251,Fire,Regular stop,-6.81251,39.27351,0,,
DARAJANI-667,DARAJANI-667,Darajani,Regular stop,-6.829936667,39.272391667,0,,
KONA-667,KONA-667,Kona,Regular stop,-6.843011667,39.273251667,0,,
MADUKANI-333,MADUKANI-333,Madukani,Regular stop,-6.845023333,39.268023333,0,,
USALAMA-333,USALAMA-333,Usalama,Regular stop,-6.853828333,39.26444,0,,
TEMEKETANDIKA-632,TEMEKETANDIKA-632,Temeke/tandika,Regular stop,-6.86632,39.262716667,0,,
TANDIKA-378,TANDIKA-378,Tandika,Large bus stop,-6.866378,39.26249686,0,,
HOSPITALTEMEKE-735,HOSPITALTEMEKE-735,Hospital temeke,Small station,-6.86142735,39.26312787,0,,
USALAMA-486,USALAMA-486,Usalama,Small bus stop,-6.85573486,39.26374108,0,,
VETENARY-127,VETENARY-127,Vetenary,Small bus stop,-6.849127,39.25969231,0,,
SOKONI-683,SOKONI-683,Sokoni,Small bus stop,-6.85016683,39.25278673,0,,
BAKHRESA-915,BAKHRESA-915,Bakhresa,Small bus stop,-6.84296915,39.24535952,0,,
BUGURUNI-917,BUGURUNI-917,Buguruni,Large bus stop,-6.83792917,39.24277597,0,,
MATUMBI-891,MATUMBI-891,Matumbi,Small bus stop,-6.8277891,39.23472172,0,,
TOT-693,TOT-693,Tot,Small bus stop,-6.81969693,39.22666511,0,,
GARAGE-674,GARAGE-674,Garage,Small bus stop,-6.81110674,39.21617877,0,,
EXTERNAL-284,EXTERNAL-284,External,Small bus stop,-6.80316284,39.20887784,0,,
NJIAPANDACHUO-086,NJIAPANDACHUO-086,Njia panda chuo,Small bus stop,-6.7891086,39.20863143,0,,
SIMU2000-595,SIMU2000-595,Simu 2000,Large bus stop,-6.78780595,39.21638423,0,,
MMMOJA-447,MMMOJA-447,M/mmoja,Large bus stop,-6.82144447,39.28011205,0,,
UHURU-885,UHURU-885,Uhuru,Small bus stop,-6.82361885,39.27455715,0,,
BENJAMINSEC-961,BENJAMINSEC-961,Benjamin sec,Small bus stop,-6.82433961,39.27050096,0,,
KARUME-112,KARUME-112,Karume,Small bus stop,-6.82516112,39.26847328,0,,
ILALASOKONI-775,ILALASOKONI-775,Ilala sokoni,Small bus stop,-6.82789775,39.26499051,0,,
AMANA-125,AMANA-125,Amana,Small bus stop,-6.82789125,39.25883255,0,,
BUNGONI-715,BUNGONI-715,Bungoni,Small bus stop,-6.82797715,39.25850074,0,,
BUGURUNISOKONI-238,BUGURUNISOKONI-238,Buguruni sokoni,Large bus stop,-6.83515238,39.24629574,0,,
CHAMA-165,CHAMA-165,Chama,Small bus stop,-6.83956165,39.24406119,0,,
TAZARA-726,TAZARA-726,Tazara,Small bus stop,-6.84453726,39.24511405,0,,
KONA-418,KONA-418,Kona,Small bus stop,-6.85322418,39.23479783,0,,
BOMA-422,BOMA-422,Boma,Small bus stop,-6.85948422,39.23544327,0,,
MAKABURINI-445,MAKABURINI-445,Makaburini,Small bus stop,-6.86198445,39.2294707,0,,
KANISANI-443,KANISANI-443,Kanisani,Small bus stop,-6.8643443,39.22867696,0,,
RELINIVIWANDANI-702,RELINIVIWANDANI-702,Relini viwandani,Small bus stop,-6.86564702,39.22989453,0,,
GEREZANI-333,GEREZANI-333,Gerezani,Major stop,-6.824838333,39.273616667,0,,
DARAJANI-005,DARAJANI-005,Darajani,Small stop,-6.83005,39.272521667,0,,
KEKO-003,KEKO-003,Keko,Small stop,-6.84003,39.273011667,0,,
BORA-667,BORA-667,Bora,Small stop,-6.842966667,39.273045,0,,
SERENGETI-667,SERENGETI-667,Serengeti,Regular stop,-6.848656667,39.267063333,0,,
USALAMA-534,USALAMA-534,Usalama,Regular stop,-6.85534,39.263876667,0,,
GEREJI-725,GEREJI-725,Gereji,Regular stop,-6.85725,39.261215,0,,
MWEMBEYANGA-667,MWEMBEYANGA-667,Mwembe yanga,Small stop,-6.857791667,39.259448333,0,,
MAGURUE-667,MAGURUE-667,Magurue,Small stop,-6.862126667,39.25289,0,,
KWAMPOGO-667,KWAMPOGO-667,Kwa mpogo,Small stop,-6.862126667,39.25289,0,,
KANISANI-333,KANISANI-333,Kanisani,Small stop,-6.865583333,39.249973333,0,,
YOMBORELINI-804,YOMBORELINI-804,Yombo Relini,"Small stop,-6.86804,39.246596667,0,,
ZINGSOKONI-058,ZINGSOKONI-058,Zing/sokoni,Large bus stop but unfinished infrastructures,-6.99774058,39.07907564,0,,
KWANGWALE-482,KWANGWALE-482,Kwangwale,Small bus stop,-6.99668482,39.08462274,0,,
MASANTULA-993,MASANTULA-993,Masantula,Small bus  stop,-6.98889993,39.08854165,0,,
MAGENGE-908,MAGENGE-908,Magenge,Small bus stop,-6.98414908,39.09094878,0,,
NGUVUKAZI-999,NGUVUKAZI-999,Nguvu kazi,Small bus stop,-6.98212999,39.09194288,0,,
NYEGURU-085,NYEGURU-085,Nyeguru,Small bus stop,-6.97061085,39.09611431,0,,
TALIAN-627,TALIAN-627,Talian,Small bus stop,-6.96608627,39.09810702,0,,
BUYUNI-447,BUYUNI-447,Buyuni,Small bus stop,-6.95510447,39.10161686,0,,
KINYAMWEZI-876,KINYAMWEZI-876,Kinyamwezi,Small bus stop,-6.93175876,39.12059445,0,,
KIGOGO-354,KIGOGO-354,Kigogo,Large bus stop,-6.91455354,39.12253765,0,,
KWASELEMALA-452,KWASELEMALA-452,Kwa selemala,Small bus stop,-6.91213452,39.12156995,0,,
KWARAHISI-834,KWARAHISI-834,Kwa rahisi,Small bus stop,-6.90863834,39.12033318,0,,
KONANJIAPANDA-401,KONANJIAPANDA-401,Kona/njia panda,Small bus stop,-6.90139401,39.11928071,0,,
PUGUSEC-871,PUGUSEC-871,Pugu sec,Small bus stop,-6.89509871,39.13638155,0,,
KAMPALLA-665,KAMPALLA-665,Kampalla,Small bus stop,-6.88536665,39.14786885,0,,
GMBOTO-799,GMBOTO-799,G/mboto,Large bus stop,-6.88176799,39.15707571,0,,
MOMBASA-652,MOMBASA-652,Mombasa,Large bus stop,-6.87627652,39.17143629,0,,
MAGEREZA-128,MAGEREZA-128,Magereza,Small bus stop,-6.87454128,39.17896761,0,,
BANANA-328,BANANA-328,Banana,Large bus stop,-6.87133328,39.18920983,0,,
AIRPORT-794,AIRPORT-794,Airport,Small bus stop,-6.86335794,39.20545662,0,,
VINGUNGUTI-845,VINGUNGUTI-845,Vingunguti,Small bus stop,-6.85251845,39.22831825,0,,
BAKHRESA-297,BAKHRESA-297,Bakhresa,Small bus stop,-6.84209297,39.24511534,0,,
BUGURUNIROZANA-632,BUGURUNIROZANA-632,Buguruni rozana,Large bus stop,-6.83359632,39.24723843,0,,
MALAPABUGURUNI-859,MALAPABUGURUNI-859,Malapa buguruni,Small bus stop,-6.82970859,39.25154463,0,,
BUNGONI-308,BUNGONI-308,Bungoni,Small bus stop,-6.82926308,39.25330217,0,,
ILALASOKONI-266,ILALASOKONI-266,Ilala sokoni,Small bus stop,-6.82673266,39.2628907,0,,
KARUME-551,KARUME-551,Karume,Small busiest stop,-6.82609551,39.26549265,0,,
MCOMPLEX-406,MCOMPLEX-406,M/complex,Large bus stop,-6.82685406,39.26830965,0,,
